[
  {
    "": 0,
    "address": "서울특별시 동작구 상도로 81, 대방동크리닉센타 6층 (대방동)",
    "name": "강미자산부인과의원",
    "call": "02-817-7002",
    "longitude": 126.93162993743223,
    "latitude": 37.500663867092456
  },
  {
    "": 1,
    "address": "서울특별시 강동구 아리수로 427 (강일동)",
    "name": "강일서울산부인과의원",
    "call": "02-428-0924",
    "longitude": 127.174603355856,
    "latitude": 37.5649623335076
  },
  {
    "": 2,
    "address": "서울특별시 광진구 능동로 111, 5층 (화양동)",
    "name": "건대와이(Y)산부인과의원",
    "call": "02-461-8120",
    "longitude": 127.067931755916,
    "latitude": 37.541126352135365
  },
  {
    "": 3,
    "address": "서울특별시 양천구 지양로 42-  (신월동)",
    "name": "황인구산부인과의원",
    "call": "02-2695-2227",
    "longitude": 126.83575029162712,
    "latitude": 37.51992662118848
  },
  {
    "": 4,
    "address": "서울특별시 동대문구 천호대로 295 (답십리동)",
    "name": "황인규산부인과의원",
    "call": "02-2242-8700",
    "longitude": 127.05385128,
    "latitude": 37.5664588587
  },
  {
    "": 5,
    "address": "서울특별시 강동구 고덕로 266, 고덕역 대명벨리온 3층 320,321호 (명일동)",
    "name": "고덕민산부인과의원",
    "call": "02-3427-3131",
    "longitude": 127.15511458665,
    "latitude": 37.5546936843646
  },
  {
    "": 6,
    "address": "서울특별시 광진구 광나루로 355, 3층 (군자동)",
    "name": "고려산부인과의원",
    "call": "02-462-7799",
    "longitude": 127.0693462421633,
    "latitude": 37.54838592204096
  },
  {
    "": 7,
    "address": "서울특별시 성동구 왕십리로 309, 407호 (행당동, 왕십리역이스타빌 )",
    "name": "고선용산부인과의원",
    "call": "02-2292-4411",
    "longitude": 127.03478336915032,
    "latitude": 37.56139299791035
  },
  {
    "": 8,
    "address": "서울특별시 강서구 마곡중앙5로 81, 502.503호 (마곡동, 에스비타운)",
    "name": "고운여성산부인과의원",
    "call": "02-2661-3009",
    "longitude": 126.81859563401362,
    "latitude": 37.56711744045069
  },
  {
    "": 9,
    "address": "서울특별시 송파구 오금로 95, 국제빌딩 지하1층, 2~8층 (방이동)",
    "name": "고은빛산부인과의원",
    "call": "02-421-3030",
    "longitude": 127.10769920017124,
    "latitude": 37.513785621381885
  },
  {
    "": 10,
    "address": "서울특별시 동대문구 이문로 32, 2층 (휘경동)",
    "name": "고은산부인과의원",
    "call": "02-960-2164",
    "longitude": 127.05618333333332,
    "latitude": 37.59020833333334
  },
  {
    "": 11,
    "address": "서울특별시 은평구 통일로 683-1 (녹번동)",
    "name": "구세산부인과의원",
    "call": "02-355-7253",
    "longitude": 126.93247477559925,
    "latitude": 37.60724517171135
  },
  {
    "": 12,
    "address": "서울특별시 동대문구 전농로 102, 202~204층 (답십리동)",
    "name": "궁산부인과의원",
    "call": "02-2244-8855",
    "longitude": 127.05785496988749,
    "latitude": 37.57398207703881
  },
  {
    "": 13,
    "address": "서울특별시 광진구 뚝섬로 590, 2층 (자양동)",
    "name": "권오상산부인과의원",
    "call": "02-454-5353",
    "longitude": 127.07524166666668,
    "latitude": 37.533075
  },
  {
    "": 14,
    "address": "서울특별시 강남구 테헤란로87길 13, 5층 2호 (삼성동, 서영빌딩)",
    "name": "그대안에산부인과의원",
    "call": "02-565-0502",
    "longitude": 127.0585916918,
    "latitude": 37.5086340085
  },
  {
    "": 15,
    "address": "서울특별시 서대문구 신촌로 107, 5층 (창천동)",
    "name": "그대안에산부인과의원",
    "call": "02-363-2400",
    "longitude": 126.9378721848,
    "latitude": 37.5556536455
  },
  {
    "": 16,
    "address": "서울특별시 중구 퇴계로 447, 3층 320호,321호 (황학동, 황학 아크로타워)",
    "name": "그린나래산부인과의원",
    "call": "070-7793-0307",
    "longitude": 127.0217233062,
    "latitude": 37.5660402677
  },
  {
    "": 17,
    "address": "서울특별시 양천구 신목로 86, 3층 (신정동)",
    "name": "금산부인과의원",
    "call": "02-2649-6412",
    "longitude": 126.87475899974412,
    "latitude": 37.52230622071717
  },
  {
    "": 18,
    "address": "서울특별시 양천구 신월로 304, 4층 (신정동)",
    "name": "기쁜소식산부인과의원",
    "call": "02-2643-3388",
    "longitude": 126.85462340527472,
    "latitude": 37.52104999643851
  },
  {
    "": 19,
    "address": "서울특별시 구로구 개봉로 23, 고려크리닉센터 6층 (개봉동)",
    "name": "김관수산부인과의원",
    "call": "02-2618-9817",
    "longitude": 126.856042341499,
    "latitude": 37.48776560806894
  },
  {
    "": 20,
    "address": "서울특별시 송파구 송파대로 111, 205동 313호 (문정동, 파크하비오)",
    "name": "김미경산부인과의원",
    "call": "02-401-2256",
    "longitude": 127.12491204910002,
    "latitude": 37.4796673949
  },
  {
    "": 21,
    "address": "서울특별시 강북구 도봉로 199 (미아동, 김보연산부인과)",
    "name": "김보연산부인과의원",
    "call": "02-902-9955",
    "longitude": 127.02575865908508,
    "latitude": 37.62642952974326
  },
  {
    "": 22,
    "address": "서울특별시 송파구 올림픽로35가길 9, 2층 (신천동, 잠실푸르지오월드마크 )",
    "name": "김성희마리안산부인과의원",
    "call": "02-419-2009",
    "longitude": 127.10357798467008,
    "latitude": 37.51744017278381
  },
  {
    "": 23,
    "address": "서울특별시 강남구 선릉로 312  (대치동)",
    "name": "김숙경산부인과의원",
    "call": "02-567-7594",
    "longitude": 127.05267540302894,
    "latitude": 37.497521990406746
  },
  {
    "": 24,
    "address": "서울특별시 강서구 강서로 261 (내발산동)",
    "name": "김순애산부인과의원",
    "call": "02-2602-2914",
    "longitude": 126.83595315868466,
    "latitude": 37.54918417749011
  },
  {
    "": 25,
    "address": "서울특별시 영등포구 여의대방로 386  (여의도동)",
    "name": "김열회산부인과의원",
    "call": "02-780-3881",
    "longitude": 126.9319436101711,
    "latitude": 37.51889677455607
  },
  {
    "": 26,
    "address": "서울특별시 서초구 방배로 144, 1호 (방배동)",
    "name": "김용훈산부인과의원",
    "call": "02-522-9988",
    "longitude": 126.99463600190836,
    "latitude": 37.486674664683285
  },
  {
    "": 27,
    "address": "서울특별시 마포구 월드컵로14길 5, 5층 (서교동)",
    "name": "김유정산부인과의원",
    "call": "02-3142-3382",
    "longitude": 126.93345861873834,
    "latitude": 37.55664246639711
  },
  {
    "": 28,
    "address": "서울특별시 송파구 올림픽로 108 (잠실동)",
    "name": "김윤숙산부인과의원",
    "call": "02-422-7779",
    "longitude": 127.08276934302116,
    "latitude": 37.51141985672251
  },
  {
    "": 29,
    "address": "서울특별시 강동구 양재대로 1633 (명일동)",
    "name": "김윤아산부인과의원",
    "call": "02-488-8383",
    "longitude": 127.14378575195288,
    "latitude": 37.551412626236115
  },
  {
    "": 30,
    "address": "서울특별시 구로구 경인로 661, 신도림1차푸르지오 208호 (신도림동)",
    "name": "김은주산부인과의원",
    "call": "02-2689-7500",
    "longitude": 126.8433881701,
    "latitude": 37.4960748115
  },
  {
    "": 31,
    "address": "서울특별시 강서구 강서로 52, 403호 (화곡동, 화곡판타지아)",
    "name": "김정숙산부인과의원",
    "call": "02-2695-3335",
    "longitude": 126.846692636222,
    "latitude": 37.532490483228
  },
  {
    "": 32,
    "address": "서울특별시 송파구 석촌호수로 234 (석촌동)",
    "name": "김정자산부인과의원",
    "call": "02-415-7718",
    "longitude": 127.10278709070424,
    "latitude": 37.50769109991824
  },
  {
    "": 33,
    "address": "서울특별시 관악구 양녕로 46, 3층 305호 (봉천동, 메카플러스)",
    "name": "김정화산부인과의원",
    "call": "02-883-3307",
    "longitude": 126.94728736169728,
    "latitude": 37.48614044989965
  },
  {
    "": 34,
    "address": "서울특별시 관악구 봉천로 212, 4층 (신림동)",
    "name": "김지연산부인과의원",
    "call": "02-884-1852",
    "longitude": 126.9250590819,
    "latitude": 37.4896387679
  },
  {
    "": 35,
    "address": "서울특별시 노원구 덕릉로83길 10, 2/3층 (중계동)",
    "name": "김지호산부인과의원",
    "call": "02-939-0980",
    "longitude": 127.07488061409188,
    "latitude": 37.65997721891624
  },
  {
    "": 36,
    "address": "서울특별시 강동구 구천면로 322 (천호동)",
    "name": "김창환산부인과의원",
    "call": "02-487-7199",
    "longitude": 127.13561918938667,
    "latitude": 37.54805818773971
  },
  {
    "": 37,
    "address": "서울특별시 강서구 강서로 43, 402,403호 (화곡동, 도양라비앙타워)",
    "name": "김현영산부인과의원",
    "call": "02-2699-5225",
    "longitude": 126.84653170360522,
    "latitude": 37.531520797785085
  },
  {
    "": 38,
    "address": "서울특별시 서초구 동작대로 120, 성산빌딩 504호 (방배동)",
    "name": "김현영산부인과의원",
    "call": "02-534-3091",
    "longitude": 126.98270927466534,
    "latitude": 37.48725017369038
  },
  {
    "": 39,
    "address": "서울특별시 송파구 마천로41길 22 (마천동)",
    "name": "김혜숙산부인과의원",
    "call": "02-403-7300",
    "longitude": 127.14990555555553,
    "latitude": 37.496944444444445
  },
  {
    "": 40,
    "address": "서울특별시 동대문구 왕산로 183",
    "name": "김흥기산부인과의원",
    "call": "02-957-2224",
    "longitude": 127.04357666509004,
    "latitude": 37.57992171355136
  },
  {
    "": 41,
    "address": "서울특별시 영등포구 도림로 178, 2층 (대림동)",
    "name": "꽃세산부인과의원",
    "call": "02-836-5275",
    "longitude": 126.901125129,
    "latitude": 37.4953299417
  },
  {
    "": 42,
    "address": "서울특별시 강남구 강남대로 364, 미왕빌딩 9층 (역삼동)",
    "name": "나를위한산부인과의원",
    "call": "02-539-5004",
    "longitude": 127.02929299748946,
    "latitude": 37.49555149181104
  },
  {
    "": 43,
    "address": "서울특별시 노원구 노해로 482, 7층(상계동,덕영빌딩)",
    "name": "남미현산부인과의원",
    "call": "02-938-5557",
    "longitude": 127.06171580009485,
    "latitude": 37.65427261570629
  },
  {
    "": 44,
    "address": "서울특별시 강서구 가로공원로 178 (화곡동)",
    "name": "남장현산부인과의원",
    "call": "02-2695-1001",
    "longitude": 126.83568186128204,
    "latitude": 37.53668514212349
  },
  {
    "": 45,
    "address": "서울특별시 관악구 남부순환로 1924, 201호 (봉천동, 동림빌딩)",
    "name": "노영숙산부인과의원",
    "call": "02-882-9900",
    "longitude": 126.96288430738846,
    "latitude": 37.47689597034768
  },
  {
    "": 46,
    "address": "서울특별시 강남구 강남대로 238, 스카이쏠라빌딩 7층 (도곡동)",
    "name": "노원재산부인과의원",
    "call": "02-571-0365",
    "longitude": 127.0347567814,
    "latitude": 37.4849649737
  },
  {
    "": 47,
    "address": "서울특별시 강남구 테헤란로 339, 6층 (역삼동)",
    "name": "노인화산부인과의원",
    "call": "02-569-1770",
    "longitude": 127.048595465,
    "latitude": 37.50481107459999
  },
  {
    "": 48,
    "address": "서울특별시 영등포구 여의대방로 375 (여의도동)",
    "name": "다미산부인과의원",
    "call": "02-761-3072",
    "longitude": 126.93073095467216,
    "latitude": 37.51892850570731
  },
  {
    "": 49,
    "address": "서울특별시 강동구 천호대로 1124 (성내동)",
    "name": "다사랑산부인과의원",
    "call": "02-484-0868",
    "longitude": 127.13619059003211,
    "latitude": 37.534335087576345
  },
  {
    "": 50,
    "address": "서울특별시 노원구 화랑로 321 , 2층 (월계동, 건안빌딩)",
    "name": "다사랑산부인과의원",
    "call": "02-912-2518",
    "longitude": 127.06353599639272,
    "latitude": 37.614595853683056
  },
  {
    "": 51,
    "address": "서울특별시 강남구 강남대로 378, 준빌딩 8층 (역삼동)",
    "name": "다움산부인과의원",
    "call": "02-555-5799",
    "longitude": 127.028631091799,
    "latitude": 37.4966540357615
  },
  {
    "": 52,
    "address": "서울특별시 용산구 한강대로 287, 2층 (갈월동)",
    "name": "다이아산부인과의원",
    "call": "02-713-2226",
    "longitude": 126.9719373343,
    "latitude": 37.5439068238
  },
  {
    "": 53,
    "address": "서울특별시 동대문구 장한로 10, 3층 (장안동)",
    "name": "다정산부인과의원",
    "call": "02-2247-2967",
    "longitude": 127.06549720202686,
    "latitude": 37.56235524182849
  },
  {
    "": 54,
    "address": "서울특별시 송파구 마천로 29, 6층 (방이동)",
    "name": "닥터예스팀산부인과의원",
    "call": "02-423-6614",
    "longitude": 127.124243586707,
    "latitude": 37.5095312359703
  },
  {
    "": 55,
    "address": "서울특별시 종로구 대학로12길 4, 4층 (동숭동, 동덕빌딩 )",
    "name": "대학로메리힐산부인과의원",
    "call": "02-744-4757",
    "longitude": 127.00218730070603,
    "latitude": 37.58251603424521
  },
  {
    "": 56,
    "address": "서울특별시 중구 퇴계로 109, 11~13층 (충무로1가)",
    "name": "더끌림산부인과의원",
    "call": "02-318-0308",
    "longitude": 126.983864819,
    "latitude": 37.560952336
  },
  {
    "": 57,
    "address": "서울특별시 중구 다산로36길 11, 3,4,5층 (신당동)",
    "name": "더드림산부인과의원",
    "call": "02-2238-2211",
    "longitude": 127.01618539258313,
    "latitude": 37.5628552340171
  },
  {
    "": 58,
    "address": "서울특별시 송파구 올림픽로 119, 2층 B1,B2호 (잠실동, 잠실파인애플상가)",
    "name": "더블유산부인과의원",
    "call": "02-421-0430",
    "longitude": 127.0845420831779,
    "latitude": 37.5120733657522
  },
  {
    "": 59,
    "address": "서울특별시 관악구 관악로 195, 314,315호 (봉천동, 관악위버폴리스)",
    "name": "더영산부인과의원",
    "call": "02-876-7722",
    "longitude": 126.9530968067,
    "latitude": 37.4825640935
  },
  {
    "": 60,
    "address": "서울특별시 성북구 동소문로 92  (동소문동5가)",
    "name": "더행복한산부인과의원",
    "call": "02-928-0809",
    "longitude": 127.01537619465068,
    "latitude": 37.59218900440454
  },
  {
    "": 61,
    "address": "서울특별시 강남구 논현로 142, 동현빌딩 2~6층 (도곡동)",
    "name": "도곡함춘산부인과의원",
    "call": "02-1661-9722",
    "longitude": 127.0430272986,
    "latitude": 37.4824178031
  },
  {
    "": 62,
    "address": "서울특별시 서초구 서초중앙로 113, 영한빌딩 7층 (서초동)",
    "name": "동화산부인과의원",
    "call": "02-6265-6000",
    "longitude": 127.0137411613,
    "latitude": 37.49187100740001
  },
  {
    "": 63,
    "address": "서울특별시 강남구 압구정로36길 8, 2층 (신사동)",
    "name": "두번째봄산부인과의원",
    "call": "02-6369-0771",
    "longitude": 127.031320992326,
    "latitude": 37.5279511760453
  },
  {
    "": 64,
    "address": "서울특별시 영등포구 도신로 215-1, 2-5층 (신길동)",
    "name": "라메르산부인과의원",
    "call": "02-831-8387",
    "longitude": 126.9151919112,
    "latitude": 37.5119337912
  },
  {
    "": 65,
    "address": "서울특별시 마포구 양화로 162, 좋은사람들 빌딩 901호 (동교동)",
    "name": "레몬산부인과의원",
    "call": "02-336-6248",
    "longitude": 126.923871361997,
    "latitude": 37.5564298566954
  },
  {
    "": 66,
    "address": "서울특별시 강남구 강남대로 340, 4층 (역삼동, 경원빌딩)",
    "name": "레아산부인과의원",
    "call": "02-558-5678",
    "longitude": 127.03030542074865,
    "latitude": 37.49357262523005
  },
  {
    "": 67,
    "address": "서울특별시 서초구 신반포로 257, 5층 (잠원동, 뉴타운)",
    "name": "레이나산부인과의원",
    "call": "02-537-5200",
    "longitude": 127.0119345888,
    "latitude": 37.5086191048
  },
  {
    "": 68,
    "address": "서울특별시 강남구 강남대로 406, GLASS TOWER 6층 (역삼동)",
    "name": "로앤산부인과의원",
    "call": "02-532-9000",
    "longitude": 127.0276251418,
    "latitude": 37.4989396781
  },
  {
    "": 69,
    "address": "서울특별시 송파구 올림픽로 106 (잠실동, 10층)",
    "name": "로앤산부인과의원",
    "call": "02-414-9922",
    "longitude": 127.08255439190562,
    "latitude": 37.51139478532904
  },
  {
    "": 70,
    "address": "서울특별시 종로구 종로 78, 4층 (종로2가, 미려빌딩)",
    "name": "로앤산부인과의원",
    "call": "02-722-1001",
    "longitude": 126.986040768872,
    "latitude": 37.56987968277655
  },
  {
    "": 71,
    "address": "서울특별시 광진구 아차산로 241, 7층 (화양동, 연한빌딩)",
    "name": "로앤산부인과의원",
    "call": "02-469-3003",
    "longitude": 127.07014894701835,
    "latitude": 37.54050516805157
  },
  {
    "": 72,
    "address": "서울특별시 영등포구 의사당대로 108, 3층 (여의도동, 아일렉스)",
    "name": "로앤산부인과의원",
    "call": "02-782-3000",
    "longitude": 126.9239915211,
    "latitude": 37.5210146876
  },
  {
    "": 73,
    "address": "서울특별시 강동구 천호대로 1015 (천호동)",
    "name": "로앤산부인과의원",
    "call": "02-474-6622",
    "longitude": 127.12510969817563,
    "latitude": 37.538502758482295
  },
  {
    "": 74,
    "address": "서울특별시 강남구 논현로 841, 408,409호 (신사동, 제이비미소빌딩)",
    "name": "로즈산부인과의원",
    "call": "02-515-6282",
    "longitude": 127.0279521761186,
    "latitude": 37.52417293178056
  },
  {
    "": 75,
    "address": "서울특별시 강남구 테헤란로 139-1 (역삼동)",
    "name": "루미나산부인과의원",
    "call": "02-6273-7080",
    "longitude": 127.0346735311,
    "latitude": 37.5005488185
  },
  {
    "": 76,
    "address": "서울특별시 서초구 강남대로 437, 5층 (서초동)",
    "name": "라임산부인과의원",
    "call": "02-592-7582",
    "longitude": 127.02545469098553,
    "latitude": 37.50135125125768
  },
  {
    "": 77,
    "address": "서울특별시 성북구 보문로 180, 외 1동 (삼선동4가, 지하1, 지상2,3,4,5,8,9,10층)",
    "name": "루시나산부인과의원",
    "call": "02-922-7474",
    "longitude": 127.01547799744203,
    "latitude": 37.59024195490788
  },
  {
    "": 78,
    "address": "서울특별시 동작구 동작대로 21, 5층 (사당동, 양지빌딩)",
    "name": "루이스산부인과의원",
    "call": "02-521-3323",
    "longitude": 126.9813636536,
    "latitude": 37.4784813521
  },
  {
    "": 79,
    "address": "서울특별시 은평구 은평로 121, 응암CO메디컬빌딩 8층 (응암동)",
    "name": "리엔유산부인과의원",
    "call": "02-2039-7582",
    "longitude": 126.9210933403,
    "latitude": 37.6004446486
  },
  {
    "": 80,
    "address": "서울특별시 강남구 도산대로 127 (신사동, 경서빌딩 3층, 4층일부)",
    "name": "리즈산부인과의원",
    "call": "02-540-8811",
    "longitude": 127.02233029828012,
    "latitude": 37.51762561979154
  },
  {
    "": 81,
    "address": "서울특별시 관악구 남부순환로 1599, 3층 (신림동)",
    "name": "리즈산부인과의원",
    "call": "02-888-1218",
    "longitude": 126.92817599966264,
    "latitude": 37.48431033348978
  },
  {
    "": 82,
    "address": "서울특별시 종로구 새문안로 96, 5층 (신문로1가)",
    "name": "리오산부인과의원",
    "call": "02-722-1470",
    "longitude": 126.9754320948,
    "latitude": 37.5699428234
  },
  {
    "": 83,
    "address": "서울특별시 서초구 서래로8길 1, 3층 (반포동)",
    "name": "마리산부인과의원",
    "call": "02-3443-7377",
    "longitude": 126.998571815059,
    "latitude": 37.4987457593011
  },
  {
    "": 84,
    "address": "서울특별시 서초구 사평대로 353, 201호 (반포동)",
    "name": "마리앤산부인과의원",
    "call": "02-512-5652",
    "longitude": 127.0217203157321,
    "latitude": 37.503955796092384
  },
  {
    "": 85,
    "address": "서울특별시 서초구 강남대로 535, 프린스빌딩 (반포동)",
    "name": "마린산부인과의원",
    "call": "02-516-5530",
    "longitude": 127.0215983814212,
    "latitude": 37.509605227847054
  },
  {
    "": 86,
    "address": "서울특별시 강남구 압구정로32길 11 (신사동, 캐럴라인타워 207호)",
    "name": "마리아산부인과의원",
    "call": "02-516-7023",
    "longitude": 127.030241985,
    "latitude": 37.526938641
  },
  {
    "": 87,
    "address": "서울특별시 은평구 서오릉로 134, 메디칼 4,5층 (대조동)",
    "name": "맘스미산부인과의원",
    "call": "02-388-5855",
    "longitude": 126.9181239310804,
    "latitude": 37.61099501518023
  },
  {
    "": 88,
    "address": "서울특별시 중랑구 망우로 233, 메디렌느산부인과 (중화동)",
    "name": "메디렌느산부인과의원",
    "call": "02-493-7987",
    "longitude": 127.07850670276028,
    "latitude": 37.59485156334375
  },
  {
    "": 89,
    "address": "서울특별시 강서구 공항대로 269-15, 힐스테이트에코마곡 3층 311호 (마곡동)",
    "name": "메디엘라산부인과의원",
    "call": "02-3663-7942",
    "longitude": 126.837242277605,
    "latitude": 37.5596113961056
  },
  {
    "": 90,
    "address": "서울특별시 강동구 양재대로 1477, 삼환빌딩 7층 (길동)",
    "name": "메리제이산부인과의원",
    "call": "02-477-8090",
    "longitude": 127.139680280513,
    "latitude": 37.537770398582
  },
  {
    "": 91,
    "address": "서울특별시 강북구 도봉로 52 6층 (미아동)",
    "name": "메이디산부인과의원",
    "call": "02-6312-6312",
    "longitude": 127.03053079187114,
    "latitude": 37.61370081364719
  },
  {
    "": 92,
    "address": "서울특별시 중랑구 면목로 299, 5층 (면목동)",
    "name": "모연산부인과의원",
    "call": "02-6398-1204",
    "longitude": 127.086675342339,
    "latitude": 37.5792394852013
  },
  {
    "": 93,
    "address": "서울특별시 양천구 등촌로 32, 301~302호 (목동, 태영프라자)",
    "name": "목동연세수산부인과의원",
    "call": "02-2643-8272",
    "longitude": 126.8641650379852,
    "latitude": 37.53288668863587
  },
  {
    "": 94,
    "address": "서울특별시 성동구 고산자로 207 (행당동)",
    "name": "무학산부인과의원",
    "call": "02-2296-8077",
    "longitude": 127.0336773306853,
    "latitude": 37.5586600987089
  },
  {
    "": 95,
    "address": "서울특별시 강남구 선릉로 513 (역삼동, APEXTOWER 4층 일부)",
    "name": "문기숙산부인과의원",
    "call": "02-508-5601",
    "longitude": 127.0483017151,
    "latitude": 37.5052797178
  },
  {
    "": 96,
    "address": "서울특별시 서대문구 모래내로 239 (남가좌동)",
    "name": "문영환산부인과의원",
    "call": "02-373-1133",
    "longitude": 126.92518156265989,
    "latitude": 37.57537448835728
  },
  {
    "": 97,
    "address": "서울특별시 용산구 보광로 22-1 (보광동, 문원실산부인과)",
    "name": "문원실산부인과의원",
    "call": "02-795-2922",
    "longitude": 127.00077833203184,
    "latitude": 37.52652804947938
  },
  {
    "": 98,
    "address": "서울특별시 강남구 논현로85길 11, 7층 (역삼동)",
    "name": "미녀사랑산부인과의원",
    "call": "02-2052-2010",
    "longitude": 127.0364596116,
    "latitude": 37.4990093624
  },
  {
    "": 99,
    "address": "서울특별시 구로구 도림로23길 2, 3,4,5층 (구로동)",
    "name": "미래사랑산부인과의원",
    "call": "02-837-7511",
    "longitude": 126.89345,
    "latitude": 37.491102777777776
  },
  {
    "": 100,
    "address": "서울특별시 금천구 시흥대로 224, 금천리메인시티 2층 206~207호 (시흥동)",
    "name": "미래산부인과의원",
    "call": "02-891-2500",
    "longitude": 126.9018961655,
    "latitude": 37.4522262762
  },
  {
    "": 101,
    "address": "서울특별시 강서구 양천로 556, 1-7층 (등촌동, 강서메디칼센터)",
    "name": "미래아이산부인과의원",
    "call": "02-3665-2002",
    "longitude": 126.8608260067538,
    "latitude": 37.55767386545176
  },
  {
    "": 102,
    "address": "서울특별시 강북구 삼양로27길 35-21 (미아동)",
    "name": "미래아이산부인과의원",
    "call": "02-985-7533",
    "longitude": 127.01901005640389,
    "latitude": 37.61797104319628
  },
  {
    "": 103,
    "address": "서울특별시 송파구 석촌호수로 58 (잠실동)",
    "name": "문앤박산부인과의원",
    "call": "02-415-0633",
    "longitude": 127.08547750146845,
    "latitude": 37.51108521203789
  },
  {
    "": 104,
    "address": "서울특별시 강남구 언주로 707, 지하1층~11층 (논현동)",
    "name": "미래와희망산부인과의원",
    "call": "02-3446-0011",
    "longitude": 127.0350110748,
    "latitude": 37.5162225985
  },
  {
    "": 105,
    "address": "서울특별시 강서구 양천로 460 (등촌동)",
    "name": "미산부인과의원",
    "call": "02-2659-7777",
    "longitude": 126.8517016324,
    "latitude": 37.562586611
  },
  {
    "": 106,
    "address": "서울특별시 송파구 법원로 114, 엠스테이트 C동 204호 (문정동)",
    "name": "미소와산부인과의원",
    "call": "02-2135-7585",
    "longitude": 127.1210105111,
    "latitude": 37.4860541974
  },
  {
    "": 107,
    "address": "서울특별시 마포구 도화길 10, 5층 (도화동, 에벤에셀)",
    "name": "미소퀸산부인과의원",
    "call": "02-704-9988",
    "longitude": 126.94741253959856,
    "latitude": 37.539807910477485
  },
  {
    "": 108,
    "address": "서울특별시 강남구 학동로33길 7 (논현동, 4층 일부)",
    "name": "미예담산부인과의원",
    "call": "02-581-7500",
    "longitude": 127.03254023143624,
    "latitude": 37.51522859696978
  },
  {
    "": 109,
    "address": "서울특별시 서대문구 통일로 131, 8층 (충정로2가, 공화당빌딩)",
    "name": "미즈미산부인과의원",
    "call": "02-363-7677",
    "longitude": 126.9658620314,
    "latitude": 37.5661526581
  },
  {
    "": 110,
    "address": "서울특별시 강남구 선릉로 227, (도곡동, 진달래상가) 3층 (도곡동)",
    "name": "미즈봄산부인과의원",
    "call": "02-6959-6040",
    "longitude": 127.05273754751948,
    "latitude": 37.49583888247608
  },
  {
    "": 111,
    "address": "서울특별시 노원구 동일로 1669, 수락프라자 (상계동)",
    "name": "미즈아이프라자산부인과의원",
    "call": "02-931-5224",
    "longitude": 127.05489268765112,
    "latitude": 37.67746002177436
  },
  {
    "": 112,
    "address": "서울특별시 동대문구 약령시로 133 (청량리동)",
    "name": "미즈아인산부인과의원",
    "call": "02-965-7770",
    "longitude": 127.0447473488,
    "latitude": 37.5833869427
  },
  {
    "": 113,
    "address": "서울특별시 종로구 종로 335, 원풍빌딩 3층 301호 (창신동)",
    "name": "미즈여성산부인과의원",
    "call": "02-2232-7771",
    "longitude": 127.01463901665728,
    "latitude": 37.57301866768072
  },
  {
    "": 114,
    "address": "서울특별시 중구 명동길 26, 유네스코회관 203호 (명동2가)",
    "name": "민유선산부인과의원",
    "call": "02-773-1456",
    "longitude": 126.98375564142655,
    "latitude": 37.563457087190606
  },
  {
    "": 115,
    "address": "서울특별시 구로구 경인로 322, 1,2,4,5층 (개봉동)",
    "name": "민전산부인과의원",
    "call": "02-2685-3388",
    "longitude": 126.8559249935232,
    "latitude": 37.49705664447202
  },
  {
    "": 116,
    "address": "서울특별시 송파구 송파대로 398 (송파동, 3층)",
    "name": "민지영산부인과의원",
    "call": "02-423-6544",
    "longitude": 127.10961992485744,
    "latitude": 37.50303306984374
  },
  {
    "": 117,
    "address": "서울특별시 강남구 강남대로 528, 6층 (논현동)",
    "name": "바른길산부인과의원",
    "call": "02-512-0998",
    "longitude": 127.022643236224,
    "latitude": 37.5092956336041
  },
  {
    "": 118,
    "address": "서울특별시 강남구 선릉로86길 17, 8층 (대치동)",
    "name": "박지양산부인과의원",
    "call": "02-552-6628",
    "longitude": 127.05106465303038,
    "latitude": 37.5035666455485
  },
  {
    "": 119,
    "address": "서울특별시 관악구 남부순환로 1838 (봉천동)",
    "name": "가연관악산부인과의원",
    "call": "02-885-7900",
    "longitude": 126.95396191935794,
    "latitude": 37.4804308447178
  },
  {
    "": 120,
    "address": "서울특별시 노원구 한글비석로 253, 201호 (중계동)",
    "name": "박경숙산부인과의원",
    "call": "02-933-9230",
    "longitude": 127.07646913696748,
    "latitude": 37.65048465947216
  },
  {
    "": 121,
    "address": "서울특별시 노원구 동일로 1530",
    "name": "박규희산부인과의원",
    "call": "02-932-0700",
    "longitude": 127.05805041129182,
    "latitude": 37.66508350173485
  },
  {
    "": 122,
    "address": "서울특별시 영등포구 시흥대로175길 3 (대림동)",
    "name": "박금자산부인과의원",
    "call": "02-846-1503",
    "longitude": 126.9044787109358,
    "latitude": 37.48770476743602
  },
  {
    "": 123,
    "address": "서울특별시 강동구 구천면로 238 (천호동)",
    "name": "박노준산부인과의원",
    "call": "02-483-3600",
    "longitude": 127.13088125498936,
    "latitude": 37.541678832662775
  },
  {
    "": 124,
    "address": "서울특별시 은평구 연서로 73 (역촌동)",
    "name": "박미숙산부인과의원",
    "call": "02-355-2229",
    "longitude": 126.91504941807396,
    "latitude": 37.60564096536873
  },
  {
    "": 125,
    "address": "서울특별시 구로구 구로동로 35 (가리봉동)",
    "name": "박산부인과의원",
    "call": "02-862-0865",
    "longitude": 126.88586141283324,
    "latitude": 37.48483205376604
  },
  {
    "": 126,
    "address": "서울특별시 관악구 난곡로 297 (신림동)",
    "name": "박산부인과의원",
    "call": "02-855-5655",
    "longitude": 126.9145310372525,
    "latitude": 37.48048457833099
  },
  {
    "": 127,
    "address": "서울특별시 성동구 왕십리로 356, 2,3층 (도선동)",
    "name": "박산부인과의원",
    "call": "02-2299-2211",
    "longitude": 127.03071427062042,
    "latitude": 37.56404165925848
  },
  {
    "": 128,
    "address": "서울특별시 강남구 양재대로55길 7, 지하1층,4층 (일원동)",
    "name": "박선혜산부인과의원",
    "call": "02-3411-3070",
    "longitude": 127.08773840102756,
    "latitude": 37.49135898306488
  },
  {
    "": 129,
    "address": "서울특별시 양천구 오목로 321-1, 서경빌딩 3층 (목동)",
    "name": "박주진산부인과의원",
    "call": "02-2653-0098",
    "longitude": 126.87311138763822,
    "latitude": 37.525295788566034
  },
  {
    "": 130,
    "address": "서울특별시 관악구 난곡로 274 (신림동)",
    "name": "박춘식산부인과의원",
    "call": "02-854-6715",
    "longitude": 126.9154286582,
    "latitude": 37.4785282403
  },
  {
    "": 131,
    "address": "서울특별시 마포구 양화로 156, 301호 (동교동, LG팰리스빌딩)",
    "name": "박혜정산부인과의원",
    "call": "02-322-3330",
    "longitude": 126.9234488643,
    "latitude": 37.5561136939
  },
  {
    "": 132,
    "address": "서울특별시 양천구 남부순환로 654, 4,5,6,9층 (신정동, 에이치앤씨티타워)",
    "name": "밝은미래산부인과의원",
    "call": "02-2687-3555",
    "longitude": 126.84186005795839,
    "latitude": 37.51071950839764
  },
  {
    "": 133,
    "address": "서울특별시 영등포구 시흥대로 675, 3층 303호 (대림동, 삼성YJ그랜드빌딩)",
    "name": "베스트산부인과의원",
    "call": "02-836-2233",
    "longitude": 126.9084704909,
    "latitude": 37.492016552
  },
  {
    "": 134,
    "address": "서울특별시 관악구 남부순환로 1470 (신림동)",
    "name": "변산부인과의원",
    "call": "02-852-2361",
    "longitude": 126.91388331634468,
    "latitude": 37.48135268807368
  },
  {
    "": 135,
    "address": "서울특별시 동대문구 이문로 74 (이문동)",
    "name": "보람산부인과의원",
    "call": "02-965-3655",
    "longitude": 127.05860510312698,
    "latitude": 37.59367471202317
  },
  {
    "": 136,
    "address": "서울특별시 서초구 사평대로26길 40, 지층 (반포동)",
    "name": "본산부인과의원",
    "call": "02-822-0110",
    "longitude": 126.99891436401768,
    "latitude": 37.498315802722345
  },
  {
    "": 137,
    "address": "서울특별시 양천구 가로공원로 105, 3층 (신월동,서문빌딩)",
    "name": "봄빛산부인과의원",
    "call": "02-2601-2511",
    "longitude": 126.82765922921382,
    "latitude": 37.53598894697626
  },
  {
    "": 138,
    "address": "서울특별시 서대문구 통일로39가길 30, 2층 (홍제동, 해명빌딩)",
    "name": "봄산부인과의원",
    "call": "02-394-7575",
    "longitude": 126.9428532940107,
    "latitude": 37.58931372447173
  },
  {
    "": 139,
    "address": "서울특별시 용산구 회나무로13길 5, (이태원동)",
    "name": "봄산부인과의원",
    "call": "02-792-3885",
    "longitude": 126.98919166666668,
    "latitude": 37.53954722222223
  },
  {
    "": 140,
    "address": "서울특별시 동대문구 왕산로 225, 미주상가 A동 3층 12호, 15호 (청량리동)",
    "name": "비너스산부인과의원",
    "call": "02-2138-3675",
    "longitude": 127.0472101215,
    "latitude": 37.5821209887
  },
  {
    "": 141,
    "address": "서울특별시 서대문구 신촌로35길 10, 지하1층 416,412호 (북아현동, e편한세상신촌4단지)",
    "name": "사라산부인과의원",
    "call": "02-392-0030",
    "longitude": 126.9559736848,
    "latitude": 37.5586422818
  },
  {
    "": 142,
    "address": "서울특별시 송파구 법원로11길 11",
    "name": "삼성산부인과의원",
    "call": "02-449-7582",
    "longitude": 127.1185083020914,
    "latitude": 37.48466866621789
  },
  {
    "": 143,
    "address": "서울특별시 관악구 난곡로 217, 3층 (신림동)",
    "name": "삼성산부인과의원",
    "call": "02-851-9600",
    "longitude": 126.91742585383471,
    "latitude": 37.47388674304317
  },
  {
    "": 144,
    "address": "서울특별시 강남구 테헤란로 514, 4층 (대치동, 삼흥2빌딩)",
    "name": "삼성연세산부인과의원",
    "call": "02-569-2600",
    "longitude": 127.059755460388,
    "latitude": 37.5074267999126
  },
  {
    "": 145,
    "address": "서울특별시 구로구 경인로 204, 401호 (오류동)",
    "name": "서울로움산부인과의원",
    "call": "02-6346-7000",
    "longitude": 126.843855441547,
    "latitude": 37.4956897995191
  },
  {
    "": 146,
    "address": "서울특별시 노원구 한글비석로 269, 401호 (중계동)",
    "name": "서울산부인과의원",
    "call": "02-951-5588",
    "longitude": 127.076788209393,
    "latitude": 37.6517182215771
  },
  {
    "": 147,
    "address": "서울특별시 강서구 금낭화로 91-2 (방화동)",
    "name": "서울산부인과의원",
    "call": "02-2665-6782",
    "longitude": 126.8110767201639,
    "latitude": 37.57370722738506
  },
  {
    "": 148,
    "address": "서울특별시 서초구 서초대로 309, 장안빌딩 6층 나호 (서초동)",
    "name": "서초리한산부인과의원",
    "call": "02-592-1688",
    "longitude": 127.015338795915,
    "latitude": 37.4944625578805
  },
  {
    "": 149,
    "address": "서울특별시 서초구 사임당로 158, 리더스원 상가 5층 503호 (서초동)",
    "name": "서초엘산부인과의원",
    "call": "02-522-3375",
    "longitude": 127.027176779785,
    "latitude": 37.4918503001644
  },
  {
    "": 150,
    "address": "서울특별시 서초구 서초중앙로 36, 준영빌딩 5층 501호 (서초동)",
    "name": "서초하나산부인과의원",
    "call": "02-3474-3700",
    "longitude": 127.0162094087,
    "latitude": 37.4855672437
  },
  {
    "": 151,
    "address": "서울특별시 강북구 도봉로 245 (미아동, 수메디칼빌딩)",
    "name": "서현산부인과의원",
    "call": "02-988-8235",
    "longitude": 127.02425696337772,
    "latitude": 37.63030206259029
  },
  {
    "": 152,
    "address": "서울특별시 관악구 남부순환로 1593, 2층 (신림동)",
    "name": "선산부인과의원",
    "call": "02-875-4445",
    "longitude": 126.9275137831252,
    "latitude": 37.4842709304412
  },
  {
    "": 153,
    "address": "서울특별시 동대문구 장한로 119, 308호 (장안동)",
    "name": "성완산부인과의원",
    "call": "02-2212-7849",
    "longitude": 127.07029539777758,
    "latitude": 37.57148674406841
  },
  {
    "": 154,
    "address": "서울특별시 중구 퇴계로 123, 8층 (충무로2가, 하이헤리엇)",
    "name": "세린산부인과의원",
    "call": "02-6261-3600",
    "longitude": 126.9853632831,
    "latitude": 37.5612660781
  },
  {
    "": 155,
    "address": "서울특별시 마포구 양화로 148, 6층 601호 (동교동, 교정빌딩)",
    "name": "세린산부인과의원",
    "call": "02-6677-3377",
    "longitude": 126.9226571622,
    "latitude": 37.5556122234
  },
  {
    "": 156,
    "address": "서울특별시 강서구 강서로 267, 송화쇼핑센터 2층 202호 (내발산동)",
    "name": "세이산부인과의원",
    "call": "0226620550",
    "longitude": 126.83594319722292,
    "latitude": 37.549598622551855
  },
  {
    "": 157,
    "address": "서울특별시 영등포구 영중로 51-1, 9층 (영등포동6가)",
    "name": "세인산부인과의원",
    "call": "02-846-7878",
    "longitude": 126.9046207167052,
    "latitude": 37.52094657308551
  },
  {
    "": 158,
    "address": "서울특별시 은평구 통일로 839, 3층 (대조동)",
    "name": "세화산부인과의원",
    "call": "02-388-5501",
    "longitude": 126.92172730083377,
    "latitude": 37.61793867509491
  },
  {
    "": 159,
    "address": "서울특별시 성동구 왕십리로 410, 상가 L동 1층 132호 (하왕십리동, 센트라스)",
    "name": "센트라스산부인과의원",
    "call": "02-2297-9887",
    "longitude": 127.02408246322,
    "latitude": 37.566590498762
  },
  {
    "": 160,
    "address": "서울특별시 광진구 능동로 103 (화양동)",
    "name": "소연산부인과의원",
    "call": "02-469-9777",
    "longitude": 127.07049760303744,
    "latitude": 37.54033759543319
  },
  {
    "": 161,
    "address": "서울특별시 중랑구 면목로 426, 2층 (면목동)",
    "name": "소원산부인과의원",
    "call": "0222087511",
    "longitude": 127.087450444888,
    "latitude": 37.5899467638328
  },
  {
    "": 162,
    "address": "서울특별시 강남구 테헤란로 514 삼흥2빌딩 4층",
    "name": "소중한당신산부인과의원",
    "call": "02-569-2600",
    "longitude": 127.05976698747143,
    "latitude": 37.507415261225646
  },
  {
    "": 163,
    "address": "서울특별시 강남구 강남대로 596, 극동빌딩 10~11층 (논현동)",
    "name": "솜씨좋은산부인과의원",
    "call": "02-546-5013",
    "longitude": 127.020353084878,
    "latitude": 37.5150210314243
  },
  {
    "": 164,
    "address": "서울특별시 강동구 천호대로170길 19, 조은마디병원 (성내동)",
    "name": "송산부인과의원",
    "call": "02-485-1369",
    "longitude": 127.1332127602,
    "latitude": 37.5343637122
  },
  {
    "": 165,
    "address": "서울특별시 구로구 구로중앙로 68, 309호 (구로동, 신안타워)",
    "name": "송영훈산부인과의원",
    "call": "02-864-8985",
    "longitude": 126.88876481801653,
    "latitude": 37.49587041501183
  },
  {
    "": 166,
    "address": "서울특별시 강남구 광평로 280, 로즈데일오피스텔 2층 204호 (수서동)",
    "name": "수서나을산부인과의원",
    "call": "02-2226-2939",
    "longitude": 127.103108072457,
    "latitude": 37.4873191631489
  },
  {
    "": 167,
    "address": "서울특별시 중랑구 면목로 330 (면목동)",
    "name": "수아산부인과의원",
    "call": "02-495-3718",
    "longitude": 127.08870425169998,
    "latitude": 37.58131503849999
  },
  {
    "": 168,
    "address": "서울특별시 중구 동호로 192 (신당동)",
    "name": "쉬앤미산부인과의원",
    "call": "02-2232-3111",
    "longitude": 127.0106609184,
    "latitude": 37.5553631704
  },
  {
    "": 169,
    "address": "서울특별시 서초구 서초대로77길 24, 강남 지웰타워2 8층 (서초동)",
    "name": "쉬즈웰산부인과의원",
    "call": "02-564-2211",
    "longitude": 127.02599252571656,
    "latitude": 37.50002125602344
  },
  {
    "": 170,
    "address": "서울특별시 마포구 만리재로 31, 성은빌딩 2~3층 (신공덕동)",
    "name": "신.홍산부인과의원",
    "call": "02-712-1331",
    "longitude": 126.9547189617,
    "latitude": 37.5448493278
  },
  {
    "": 171,
    "address": "서울특별시 강동구 양재대로 1589 (천호동)",
    "name": "신경숙산부인과의원",
    "call": "02-488-0082",
    "longitude": 127.14297459426236,
    "latitude": 37.54753413498428
  },
  {
    "": 172,
    "address": "서울특별시 동작구 사당로 308, 화인빌딩 3층 B호 (사당동)",
    "name": "신수재산부인과의원",
    "call": "02-585-5222",
    "longitude": 126.98157914593254,
    "latitude": 37.48490738146172
  },
  {
    "": 173,
    "address": "서울특별시 관악구 관천로 17 (신림동)",
    "name": "신숙진산부인과의원",
    "call": "02-851-9393",
    "longitude": 126.92831869073596,
    "latitude": 37.48170470336096
  },
  {
    "": 174,
    "address": "서울특별시 마포구 서강로 106, 5,6,7층 (신수동)",
    "name": "신촌연세퀸산부인과의원",
    "call": "02-718-0055",
    "longitude": 126.9335066235,
    "latitude": 37.5523428041
  },
  {
    "": 175,
    "address": "서울특별시 마포구 신촌로 92, 신촌카리스빌딩 8층 (노고산동)",
    "name": "신촌티오피산부인과의원",
    "call": "02-335-2228",
    "longitude": 126.9356815527,
    "latitude": 37.5551767458
  },
  {
    "": 176,
    "address": "서울특별시 영등포구 신풍로 33, 2층 (신길동)",
    "name": "신풍산부인과의원",
    "call": "02-833-7378",
    "longitude": 126.90999837418443,
    "latitude": 37.50034301823598
  },
  {
    "": 177,
    "address": "서울특별시 강남구 논현로 64",
    "name": "아델산부인과의원",
    "call": "02-578-4412",
    "longitude": 127.04688727479154,
    "latitude": 37.47591328430374
  },
  {
    "": 178,
    "address": "서울특별시 영등포구 선유로 64, 2-5,7층 (문래동3가)",
    "name": "아란태산부인과의원",
    "call": "02-2630-6600",
    "longitude": 126.88968161113952,
    "latitude": 37.51962891251866
  },
  {
    "": 179,
    "address": "서울특별시 서초구 사평대로 373, 5층 (반포동)",
    "name": "강남에스터산부인과의원",
    "call": "02-511-7999",
    "longitude": 127.023933493933,
    "latitude": 37.5046005122475
  },
  {
    "": 180,
    "address": "서울특별시 광진구 아차산로 375 (구의동)",
    "name": "아미산부인과의원",
    "call": "02-446-7557",
    "longitude": 127.08439330191116,
    "latitude": 37.53708869181696
  },
  {
    "": 181,
    "address": "서울특별시 송파구 백제고분로 204 (삼전동, 4층)",
    "name": "아미산부인과의원",
    "call": "02-3432-7373",
    "longitude": 127.08923218656844,
    "latitude": 37.50376855610166
  },
  {
    "": 182,
    "address": "서울특별시 서초구 서초대로77길 55, 에이프로 스퀘어 10층 (서초동)",
    "name": "강남권산부인과의원",
    "call": "02-555-7866",
    "longitude": 127.0285791857,
    "latitude": 37.4978402234
  },
  {
    "": 183,
    "address": "서울특별시 강동구 올림픽로 664, 4층 402호 (천호동, 대우 한강 베네시티)",
    "name": "아산이화산부인과의원",
    "call": "02-6428-0100",
    "longitude": 127.124975762766,
    "latitude": 37.540555377209
  },
  {
    "": 184,
    "address": "서울특별시 양천구 목동동로 73 (신정동)",
    "name": "아이리스산부인과의원",
    "call": "02-2647-0020",
    "longitude": 126.8628455431328,
    "latitude": 37.515862994593455
  },
  {
    "": 185,
    "address": "서울특별시 강서구 강서로 385, 우성에스비타워 7층 707호 (마곡동)",
    "name": "아이비산부인과의원",
    "call": "02-2668-8998",
    "longitude": 126.8383060298,
    "latitude": 37.5600930886
  },
  {
    "": 186,
    "address": "서울특별시 영등포구 양평로 32, 지하1,2,3층 (당산동6가)",
    "name": "아이엘산부인과소아청소년과의원",
    "call": "02-2068-5111",
    "longitude": 126.90291824743863,
    "latitude": 37.53367806439041
  },
  {
    "": 187,
    "address": "서울특별시 금천구 가산디지털1로 171, 가산 에스케이 브이원 센터 210,211호 (가산동)",
    "name": "애플산부인과의원",
    "call": "02-6746-1000",
    "longitude": 126.880678781517,
    "latitude": 37.4807624025755
  },
  {
    "": 188,
    "address": "서울특별시 은평구 서오릉로 81 (역촌동)",
    "name": "아이제일산부인과의원",
    "call": "02-355-8113",
    "longitude": 126.9215253820348,
    "latitude": 37.60744742845299
  },
  {
    "": 189,
    "address": "서울특별시 서초구 방배로 234, 지1층,2~5층 (방배동, 우신빌딩)",
    "name": "아이투비산부인과의원",
    "call": "02-532-6400",
    "longitude": 126.9899086681,
    "latitude": 37.4941599338
  },
  {
    "": 190,
    "address": "서울특별시 성북구 길음로 6 (길음동)",
    "name": "안산부인과의원",
    "call": "02-913-6446",
    "longitude": 127.02429834286728,
    "latitude": 37.60428872392498
  },
  {
    "": 191,
    "address": "서울특별시 마포구 마포대로 52, 207호 (도화동, 고려아카데미텔2)",
    "name": "안영옥산부인과의원",
    "call": "02-718-3337",
    "longitude": 126.94780261351546,
    "latitude": 37.5404644553814
  },
  {
    "": 192,
    "address": "서울특별시 강남구 압구정로28길 14, 2층 (신사동, 형원빌딩 2층)",
    "name": "압구정본산부인과의원",
    "call": "02-541-3121",
    "longitude": 127.027585240521,
    "latitude": 37.52572834467614
  },
  {
    "": 193,
    "address": "서울특별시 강남구 논현로168길 20, 5층 (신사동)",
    "name": "압구정함춘산부인과의원",
    "call": "02-3445-0789",
    "longitude": 127.02986963595384,
    "latitude": 37.52372395988334
  },
  {
    "": 194,
    "address": "서울특별시 서초구 서초대로77길 3, 6층 (서초동, 아라타워)",
    "name": "애플산부인과의원",
    "call": "02-530-8500",
    "longitude": 127.026527188622,
    "latitude": 37.498220920583535
  },
  {
    "": 195,
    "address": "서울특별시 송파구 올림픽로 114, 8층 (잠실동, 서경빌딩)",
    "name": "애플산부인과의원",
    "call": "02-417-4004",
    "longitude": 127.0831877854,
    "latitude": 37.5113907369
  },
  {
    "": 196,
    "address": "서울특별시 성동구 왕십리로 315, 한동타워 10층 (행당동)",
    "name": "애플산부인과의원",
    "call": "02-2298-6200",
    "longitude": 127.03423554676186,
    "latitude": 37.56171972806791
  },
  {
    "": 197,
    "address": "서울특별시 관악구 남부순환로 1619, 4층 (신림동, 영일빌딩)",
    "name": "애플산부인과의원",
    "call": "02-886-8622",
    "longitude": 126.93050030994456,
    "latitude": 37.48463969806984
  },
  {
    "": 198,
    "address": "서울특별시 강서구 마곡중앙6로 69, 6층 (마곡동)",
    "name": "애플산부인과의원",
    "call": "02-3664-7760",
    "longitude": 126.835089020911,
    "latitude": 37.5603375842313
  },
  {
    "": 199,
    "address": "서울특별시 마포구 양화로18길 3, 5층 (동교동, 삼양세븐스프링스)",
    "name": "애플산부인과의원",
    "call": "02-334-3660",
    "longitude": 126.9245706303,
    "latitude": 37.5570298291
  },
  {
    "": 200,
    "address": "서울특별시 양천구 오목로 226 (신정동)",
    "name": "양미혜산부인과의원",
    "call": "02-2606-2434",
    "longitude": 126.8626666647,
    "latitude": 37.52570578
  },
  {
    "": 201,
    "address": "서울특별시 도봉구 도봉로 496, 5층 (창동)",
    "name": "양산부인과의원",
    "call": "02-996-7947",
    "longitude": 127.03569947523911,
    "latitude": 37.649755242992335
  },
  {
    "": 202,
    "address": "서울특별시 마포구 월드컵북로 230, 207호 (중동, 현대상가)",
    "name": "양성우산부인과의원",
    "call": "02-375-0121",
    "longitude": 126.9038335685,
    "latitude": 37.5701404709
  },
  {
    "": 203,
    "address": "서울특별시 서대문구 신촌로 99, 10층 (창천동)",
    "name": "애플산부인과의원",
    "call": "02-393-3060",
    "longitude": 126.9371568973,
    "latitude": 37.5556893069
  },
  {
    "": 204,
    "address": "서울특별시 강동구 고덕로83길 6, 2층 (고덕동)",
    "name": "엄주명산부인과의원",
    "call": "02-429-2876",
    "longitude": 127.1689223846,
    "latitude": 37.5574052075
  },
  {
    "": 205,
    "address": "서울특별시 서초구 강남대로 435, 5층-사용6층 (서초동, 주류성빌딩)",
    "name": "에이린산부인과의원",
    "call": "02-534-1131",
    "longitude": 127.0255631795,
    "latitude": 37.5011782414
  },
  {
    "": 206,
    "address": "서울특별시 강남구 개포로 615, 석탑프라자 4층 401-2호 (개포동)",
    "name": "에이퀸산부인과의원",
    "call": "02-451-7001",
    "longitude": 127.075584863879,
    "latitude": 37.4926581736143
  },
  {
    "": 207,
    "address": "서울특별시 성동구 상원1길 26, 서울숲A타워 211호 (성수동1가)",
    "name": "에이플러스(A+)산부인과의원",
    "call": "02-2635-0641",
    "longitude": 127.0484322094,
    "latitude": 37.546195972
  },
  {
    "": 208,
    "address": "서울특별시 강남구 도곡로 408, 디마크 빌딩 404호 (대치동)",
    "name": "에펠산부인과의원",
    "call": "02-2039-7597",
    "longitude": 127.055233195315,
    "latitude": 37.4966225187716
  },
  {
    "": 209,
    "address": "서울특별시 관악구 남부순환로 1934, 낙성대빌딩 3층 (봉천동)",
    "name": "엘산부인과의원",
    "call": "02-877-3114",
    "longitude": 126.9645100759,
    "latitude": 37.4763943578
  },
  {
    "": 210,
    "address": "서울특별시 금천구 두산로 81, 지하1층,2~8층 (독산동)",
    "name": "엠제이산부인과의원",
    "call": "02-2109-3000",
    "longitude": 126.89704833602327,
    "latitude": 37.46990721025003
  },
  {
    "": 211,
    "address": "서울특별시 중구 퇴계로 120, 7층 (남산동1가)",
    "name": "여노피산부인과의원",
    "call": "02-757-4747",
    "longitude": 126.98514158280412,
    "latitude": 37.560577688871234
  },
  {
    "": 212,
    "address": "서울특별시 양천구 목동동로 379 (목동, 광장상가)",
    "name": "여미애산부인과의원",
    "call": "02-2649-3575",
    "longitude": 126.878714854,
    "latitude": 37.5356091326
  },
  {
    "": 213,
    "address": "서울특별시 동대문구 왕산로 176, 4층 (전농동)",
    "name": "여자의봄산부인과의원",
    "call": "02-6959-6616",
    "longitude": 127.0429150909612,
    "latitude": 37.5791434949655
  },
  {
    "": 214,
    "address": "서울특별시 송파구 송파대로 381 (석촌동, 4층)",
    "name": "연산부인과의원",
    "call": "02-422-0333",
    "longitude": 127.11016944053574,
    "latitude": 37.50141074900288
  },
  {
    "": 215,
    "address": "서울특별시 관악구 과천대로 939, 르메이에르강남타운2 306,307,308호 (남현동)",
    "name": "연세365산부인과의원",
    "call": "02-547-2876",
    "longitude": 126.98143250354136,
    "latitude": 37.47437636267328
  },
  {
    "": 216,
    "address": "서울특별시 관악구 시흥대로 570, 5층 501호 (신림동)",
    "name": "연세W산부인과의원(구로점)",
    "call": "02-866-9229",
    "longitude": 126.90246578852454,
    "latitude": 37.48353867130276
  },
  {
    "": 217,
    "address": "서울특별시 금천구 가산디지털1로 171, 가산 에스케이 브이원 센터 2층 205호 (가산동)",
    "name": "연세가산산부인과의원",
    "call": "02-6267-2670",
    "longitude": 126.88125466673866,
    "latitude": 37.48079100412151
  },
  {
    "": 218,
    "address": "서울특별시 영등포구 여의나루로 42, 여의도종합상가 5층 505호 (여의도동)",
    "name": "연세더블유산부인과의원",
    "call": "02-6084-3575",
    "longitude": 126.92497295865542,
    "latitude": 37.52146942047973
  },
  {
    "": 219,
    "address": "서울특별시 서초구 반포대로 111, 보광빌딩 4,5층 (서초동)",
    "name": "연세더블유산부인과의원",
    "call": "02-587-2330",
    "longitude": 127.008213733,
    "latitude": 37.4899830093
  },
  {
    "": 220,
    "address": "서울특별시 양천구 오목로 344, 3층 (목동, 청학빌딩)",
    "name": "연세더블유산부인과의원",
    "call": "02-2654-3500",
    "longitude": 126.87541897404452,
    "latitude": 37.52402568677058
  },
  {
    "": 221,
    "address": "서울특별시 성동구 왕십리로 327, 4층 (하왕십리동)",
    "name": "연세더블유산부인과의원",
    "call": "02-2281-0045",
    "longitude": 127.0332262552,
    "latitude": 37.5623939619
  },
  {
    "": 222,
    "address": "서울특별시 송파구 올림픽로 145, 리센츠 4층층 4B18,19호 (잠실동)",
    "name": "연세리센츠산부인과의원",
    "call": "02-412-7788",
    "longitude": 127.0870431473,
    "latitude": 37.5119790175
  },
  {
    "": 223,
    "address": "서울특별시 서초구 사임당로 180, 보원빌딩 2층 202호 (서초동)",
    "name": "연세미시간산부인과의원",
    "call": "02-6254-3366",
    "longitude": 127.02926922056264,
    "latitude": 37.49257817459575
  },
  {
    "": 224,
    "address": "서울특별시 중랑구 망우로 214, 우도빌딩 (상봉동)",
    "name": "연세봄산부인과의원",
    "call": "02-493-5605",
    "longitude": 127.0765308712885,
    "latitude": 37.59380770795106
  },
  {
    "": 225,
    "address": "서울특별시 마포구 마포대로 68, 5층 502호 (도화동, 마포아크로타워)",
    "name": "연세사랑산부인과의원",
    "call": "02-6227-7575",
    "longitude": 126.948961312534,
    "latitude": 37.5413315500222
  },
  {
    "": 226,
    "address": "서울특별시 노원구 상계로 65, (상계동)",
    "name": "연세산부인과의원",
    "call": "02-939-2231",
    "longitude": 127.06224789120319,
    "latitude": 37.656355407036685
  },
  {
    "": 227,
    "address": "서울특별시 용산구 독서당로 70, 301호(한남동,현대리버티하우스)",
    "name": "연세산부인과의원",
    "call": "02-790-0802",
    "longitude": 127.00869822897556,
    "latitude": 37.53359879170921
  },
  {
    "": 228,
    "address": "서울특별시 성북구 성북로 3 (성북동1가, 이금희산부인과)",
    "name": "연세삼성산부인과의원",
    "call": "02-762-2081",
    "longitude": 127.00560215511624,
    "latitude": 37.58863986627003
  },
  {
    "": 229,
    "address": "서울특별시 강남구 논현로 507  (역삼동)",
    "name": "강남연세산부인과의원",
    "call": "02-555-3453",
    "longitude": 127.03615777458234,
    "latitude": 37.50157912434391
  },
  {
    "": 230,
    "address": "서울특별시 송파구 위례서로 248, 301~302호 (거여동)",
    "name": "연세수피아산부인과의원",
    "call": "02-408-8275",
    "longitude": 127.142262855079,
    "latitude": 37.4866427532962
  },
  {
    "": 231,
    "address": "서울특별시 관악구 남부순환로 1605, 3층 (신림동)",
    "name": "연세쉬즈산부인과의원",
    "call": "02-882-8202",
    "longitude": 126.9290849676,
    "latitude": 37.4843757626
  },
  {
    "": 232,
    "address": "서울특별시 영등포구 대림로 153, 1층 (대림동, 이충호산부인과)",
    "name": "연세이충호산부인과의원",
    "call": "02-844-6106",
    "longitude": 126.89981909987388,
    "latitude": 37.49442783485191
  },
  {
    "": 233,
    "address": "서울특별시 종로구 통일로 134, 디타워(돈의문) 지하 1층 102호 (평동)",
    "name": "연세조이산부인과의원",
    "call": "02-2135-9191",
    "longitude": 126.966255525958,
    "latitude": 37.5667996863316
  },
  {
    "": 234,
    "address": "서울특별시 서초구 강남대로 463, 리젠메디컬타워 13층 (서초동)",
    "name": "강남라이프산부인과의원",
    "call": "02-595-2500",
    "longitude": 127.02444657684124,
    "latitude": 37.50344901227182
  },
  {
    "": 235,
    "address": "서울특별시 송파구 송파대로 345, 1A동 4006호 (가락동, 헬리오시티)",
    "name": "연세헬리오산부인과의원",
    "call": "02-6482-0008",
    "longitude": 127.102531804188,
    "latitude": 37.4976145695004
  },
  {
    "": 236,
    "address": "서울특별시 강남구 학동로 521, 2~4층 (청담동)",
    "name": "연앤네이쳐산부인과의원",
    "call": "02-518-1300",
    "longitude": 127.0557997663,
    "latitude": 37.5200456727
  },
  {
    "": 237,
    "address": "서울특별시 구로구 경인로 193, 3층 (오류동,상임빌딩)",
    "name": "연희산부인과의원",
    "call": "02-2625-5002",
    "longitude": 126.84248994686862,
    "latitude": 37.49570780181262
  },
  {
    "": 238,
    "address": "서울특별시 동작구 사당로 215, 3층 (사당동)",
    "name": "연희산부인과의원",
    "call": "02-599-6600",
    "longitude": 126.9723191085839,
    "latitude": 37.48444546932609
  },
  {
    "": 239,
    "address": "서울특별시 성북구 정릉로36길 28-5, 열린산부인과 (정릉동)",
    "name": "열린산부인과의원",
    "call": "02-919-1446",
    "longitude": 127.016905036678,
    "latitude": 37.6024830784581
  },
  {
    "": 240,
    "address": "서울특별시 강서구 양천로57길 16, 영보빌딩 6층 603호 (가양동)",
    "name": "예나산부인과의원",
    "call": "02-3663-4774",
    "longitude": 126.85250594490576,
    "latitude": 37.56337689075885
  },
  {
    "": 241,
    "address": "서울특별시 강동구 고덕로 256, 명성프라자 3층 303호 (명일동)",
    "name": "예은산부인과의원",
    "call": "02-426-7488",
    "longitude": 127.15408373645624,
    "latitude": 37.55459051394268
  },
  {
    "": 242,
    "address": "서울특별시 동대문구 왕산로 179, 2층 (제기동)",
    "name": "예진산부인과의원",
    "call": "02-3295-5952",
    "longitude": 127.04296101230256,
    "latitude": 37.579769212543454
  },
  {
    "": 243,
    "address": "서울특별시 중구 동호로 179, JYJ빌딩 4층 (신당동)",
    "name": "오비오(OVO)산부인과의원",
    "call": "02-2231-0501",
    "longitude": 127.010793156815,
    "latitude": 37.5541548302893
  },
  {
    "": 244,
    "address": "서울특별시 송파구 오금로 111, 705호 (방이동, 세기빌딩)",
    "name": "오세기산부인과내과의원",
    "call": "02-485-5511",
    "longitude": 127.1082494655,
    "latitude": 37.5125993975
  },
  {
    "": 245,
    "address": "서울특별시 강남구 강남대로 430, 8층 (역삼동)",
    "name": "강남리즈산부인과의원",
    "call": "02-558-5538",
    "longitude": 127.0266276154228,
    "latitude": 37.50094191602352
  },
  {
    "": 246,
    "address": "서울특별시 강남구 학동로 342, 308호 (논현동)",
    "name": "오혜연산부인과의원",
    "call": "02-3445-8877",
    "longitude": 127.04098035380312,
    "latitude": 37.51687483654374
  },
  {
    "": 247,
    "address": "서울특별시 성북구 오패산로 10 (하월곡동)",
    "name": "온누리산부인과의원",
    "call": "02-919-2321",
    "longitude": 127.03774722222222,
    "latitude": 37.60329166666666
  },
  {
    "": 248,
    "address": "서울특별시 노원구 노해로 485, 7층 (상계동, 금정빌딩)",
    "name": "힐링산부인과의원",
    "call": "02-952-9100",
    "longitude": 127.06193192287614,
    "latitude": 37.654875342565234
  },
  {
    "": 249,
    "address": "서울특별시 노원구 노해로 495 (상계동)",
    "name": "올리브산부인과의원",
    "call": "02-925-8861",
    "longitude": 127.063097071881,
    "latitude": 37.65510178586275
  },
  {
    "": 250,
    "address": "서울특별시 강남구 선릉로 820, 1층, 지하1층 (청담동)",
    "name": "와이퀸산부인과의원",
    "call": "02-555-8278",
    "longitude": 127.040210980624,
    "latitude": 37.5249602205031
  },
  {
    "": 251,
    "address": "서울특별시 도봉구 해등로 155 (쌍문동)",
    "name": "왕영미산부인과의원",
    "call": "02-907-6171",
    "longitude": 127.03898729284526,
    "latitude": 37.656694246533135
  },
  {
    "": 252,
    "address": "서울특별시 성북구 종암로 147, 지상1~8층 (종암동)",
    "name": "우리기쁜산부인과의원",
    "call": "02-2039-1000",
    "longitude": 127.0320167441298,
    "latitude": 37.60303991196504
  },
  {
    "": 253,
    "address": "서울특별시 양천구 중앙로 275, 3층 (신정동)",
    "name": "우리산부인과의원",
    "call": "02-2605-7813",
    "longitude": 126.85226403730599,
    "latitude": 37.520795373589465
  },
  {
    "": 254,
    "address": "서울특별시 강남구 남부순환로377길 3, 301호 (도곡동)",
    "name": "우박산부인과의원",
    "call": "02-362-8544",
    "longitude": 127.0450383711798,
    "latitude": 37.48659345290776
  },
  {
    "": 255,
    "address": "서울특별시 강동구 천호대로 1027 (천호동, 일동통상천호빌딩)",
    "name": "우정희산부인과의원",
    "call": "02-473-8883",
    "longitude": 127.12646174857062,
    "latitude": 37.53811748723393
  },
  {
    "": 256,
    "address": "서울특별시 마포구 양화로 133, 2층 202호 (서교동, 서교타워)",
    "name": "움튼산부인과의원",
    "call": "02-322-2289",
    "longitude": 126.9209825939,
    "latitude": 37.5552326957
  },
  {
    "": 257,
    "address": "서울특별시 용산구 원효로 159 (원효로2가, 원효산부인과)",
    "name": "원효산부인과의원",
    "call": "02-712-5862",
    "longitude": 126.96054491053742,
    "latitude": 37.53514223707401
  },
  {
    "": 258,
    "address": "서울특별시 금천구 가산디지털1로 186, 207호 (가산동, 제이플라츠)",
    "name": "웨일산부인과의원",
    "call": "02-426-9004",
    "longitude": 126.88158303434446,
    "latitude": 37.48191218821726
  },
  {
    "": 259,
    "address": "서울특별시 강동구 천호대로 1116, 205,206호 (성내동)",
    "name": "유나산부인과의원",
    "call": "02-477-1110",
    "longitude": 127.12572831787004,
    "latitude": 37.53765133247047
  },
  {
    "": 260,
    "address": "서울특별시 성동구 아차산로 120, 베델 플레이스 8층 (성수동2가)",
    "name": "유니스산부인과의원",
    "call": "02-467-3100",
    "longitude": 127.057223283946,
    "latitude": 37.5439102587684
  },
  {
    "": 261,
    "address": "서울특별시 용산구 한강대로80길 5  (남영동)",
    "name": "유명숙산부인과의원",
    "call": "02-795-2888",
    "longitude": 126.97318806864234,
    "latitude": 37.54266088314439
  },
  {
    "": 262,
    "address": "서울특별시 강남구 강남대로 248, 목원빌딩 4층 (도곡동)",
    "name": "유미정산부인과의원",
    "call": "02-3461-9907",
    "longitude": 127.03393118296802,
    "latitude": 37.485720448108864
  },
  {
    "": 263,
    "address": "서울특별시 중랑구 사가정로52길 20 (면목동, 유산부인과의원)",
    "name": "유정옥산부인과의원",
    "call": "02-493-3329",
    "longitude": 127.08697278612011,
    "latitude": 37.57995762869791
  },
  {
    "": 264,
    "address": "서울특별시 관악구 관악로 168, 206호 (봉천동, 대우디오슈페리움2단지)",
    "name": "유테라산부인과의원",
    "call": "02-882-5001",
    "longitude": 126.952984762396,
    "latitude": 37.4802159296703
  },
  {
    "": 265,
    "address": "서울특별시 강서구 까치산로 73, 4층 (화곡동)",
    "name": "윤영혜산부인과의원",
    "call": "02-2608-0447",
    "longitude": 126.84684444444444,
    "latitude": 37.54526666666667
  },
  {
    "": 266,
    "address": "서울특별시 강남구 강남대로 242, 크리스탈빌딩 3층 (도곡동)",
    "name": "강남미즈힐산부인과의원",
    "call": "02-577-5488",
    "longitude": 127.03412664530374,
    "latitude": 37.48543142923631
  },
  {
    "": 267,
    "address": "서울특별시 중랑구 면목로 305, 3층 (면목동)",
    "name": "윤혜정산부인과의원",
    "call": "02-438-8118",
    "longitude": 127.08746159714786,
    "latitude": 37.57971940167537
  },
  {
    "": 268,
    "address": "서울특별시 은평구 연서로 137, 4층 (구산동)",
    "name": "은산부인과의원",
    "call": "02-359-7175",
    "longitude": 126.9169096948225,
    "latitude": 37.61118465007093
  },
  {
    "": 269,
    "address": "서울특별시 노원구 한글비석로 270, 스카이타워 (중계동)",
    "name": "이가영산부인과의원",
    "call": "02-952-0997",
    "longitude": 127.077401454,
    "latitude": 37.6515712309
  },
  {
    "": 270,
    "address": "서울특별시 도봉구 도봉로 465 (쌍문동)",
    "name": "이강보산부인과의원",
    "call": "02-904-3377",
    "longitude": 127.0335324047501,
    "latitude": 37.64746602957419
  },
  {
    "": 271,
    "address": "서울특별시 동작구 남부순환로 2053 (사당동)",
    "name": "이경림산부인과의원",
    "call": "02-581-2336",
    "longitude": 126.9767875873511,
    "latitude": 37.47690197305291
  },
  {
    "": 272,
    "address": "서울특별시 중랑구 면목로 415, 2층 (면목동)",
    "name": "이경희산부인과의원",
    "call": "02-434-4574",
    "longitude": 127.087094067732,
    "latitude": 37.5890238707536
  },
  {
    "": 273,
    "address": "서울특별시 은평구 통일로 741, 신흥빌딩 (대조동)",
    "name": "이길완산부인과의원",
    "call": "02-382-3210",
    "longitude": 126.9286202132857,
    "latitude": 37.61142671978865
  },
  {
    "": 274,
    "address": "서울특별시 광진구 면목로 139, 이남희산부인과 (중곡동)",
    "name": "이남희산부인과의원",
    "call": "02-466-1235",
    "longitude": 127.08099810904729,
    "latitude": 37.56583067377545
  },
  {
    "": 275,
    "address": "서울특별시 서대문구 신촌역로 10, 2층 (대현동, 혜우빌딩)",
    "name": "이명아산부인과의원",
    "call": "02-364-8280",
    "longitude": 126.94318080898309,
    "latitude": 37.557634905027456
  },
  {
    "": 276,
    "address": "서울특별시 강서구 방화동로 56, 4동 202호 (방화동)",
    "name": "이미영산부인과의원",
    "call": "02-2664-7285",
    "longitude": 126.8121211585383,
    "latitude": 37.56529811711484
  },
  {
    "": 277,
    "address": "서울특별시 강남구 개포로 205, 양재빌딩 3층 (개포동)",
    "name": "이미원산부인과의원",
    "call": "02-576-4100",
    "longitude": 127.04512971906512,
    "latitude": 37.47856289286088
  },
  {
    "": 278,
    "address": "서울특별시 송파구 동남로 138, 3층 (문정동)",
    "name": "이미정산부인과의원",
    "call": "02-407-2702",
    "longitude": 127.12616708492304,
    "latitude": 37.49113408158763
  },
  {
    "": 279,
    "address": "서울특별시 마포구 서강로 144, 4층 5호 (노고산동)",
    "name": "이브산부인과의원",
    "call": "02-6368-2323",
    "longitude": 126.93660817652587,
    "latitude": 37.55448460507305
  },
  {
    "": 280,
    "address": "서울특별시 은평구 연서로 219 (갈현동)",
    "name": "이브산부인과의원",
    "call": "02-356-0160",
    "longitude": 126.91970162892032,
    "latitude": 37.6183481645468
  },
  {
    "": 281,
    "address": "서울특별시 영등포구 여의대방로 169, 3층 (신길동)",
    "name": "이상태산부인과의원",
    "call": "02-842-0199",
    "longitude": 126.9208576078228,
    "latitude": 37.50216182083759
  },
  {
    "": 282,
    "address": "서울특별시 금천구 금하로 720 (시흥동)",
    "name": "이성림 산부인과의원",
    "call": "02-807-3390",
    "longitude": 126.90944230157562,
    "latitude": 37.450416536425344
  },
  {
    "": 283,
    "address": "서울특별시 동대문구 사가정로 207 (장안동)",
    "name": "이연희산부인과의원",
    "call": "02-2248-6898",
    "longitude": 127.06797971384609,
    "latitude": 37.578953769664864
  },
  {
    "": 284,
    "address": "서울특별시 강남구 봉은사로 474, 2층 202호 (삼성동, 쌍용플래티넘)",
    "name": "이영희산부인과의원",
    "call": "02-596-9229",
    "longitude": 127.05203434065882,
    "latitude": 37.51238165344857
  },
  {
    "": 285,
    "address": "서울특별시 은평구 통일로 855-8, 801,802호 (갈현동, 연신내진원와이타운)",
    "name": "이윤진산부인과의원",
    "call": "02-356-3100",
    "longitude": 126.92023096708672,
    "latitude": 37.61905850193086
  },
  {
    "": 286,
    "address": "서울특별시 서초구 서초대로 320, 2층 (서초동)",
    "name": "이음산부인과의원",
    "call": "02-537-0939",
    "longitude": 127.013791411,
    "latitude": 37.494566815000006
  },
  {
    "": 287,
    "address": "서울특별시 성북구 동소문로 305, 2~3층 (길음동)",
    "name": "이인숙산부인과제일검진의원",
    "call": "02-389-2822",
    "longitude": 127.02821786473616,
    "latitude": 37.60737284131816
  },
  {
    "": 288,
    "address": "서울특별시 강남구 테헤란로 411, 성담빌딩 9층 (삼성동)",
    "name": "이지스로앤산부인과의원",
    "call": "02-542-0100",
    "longitude": 127.0508623902,
    "latitude": 37.5054948842
  },
  {
    "": 289,
    "address": "서울특별시 동작구 동작대로 121, 6층 (사당동)",
    "name": "이지은산부인과의원",
    "call": "02-535-3515",
    "longitude": 126.9818589295,
    "latitude": 37.4874807042
  },
  {
    "": 290,
    "address": "서울특별시 관악구 신림로 158 (신림동)",
    "name": "이진숙산부인과의원",
    "call": "02-875-3535",
    "longitude": 126.9338754873894,
    "latitude": 37.47292851550056
  },
  {
    "": 291,
    "address": "서울특별시 서초구 강남대로 543, 국전빌딩 1층 (반포동)",
    "name": "이해와공감산부인과의원",
    "call": "02-514-2020",
    "longitude": 127.021248744999,
    "latitude": 37.510364123748
  },
  {
    "": 292,
    "address": "서울특별시 강서구 공항대로 168, 5층 501,502호 (마곡동)",
    "name": "이현주산부인과의원",
    "call": "02-2663-9663",
    "longitude": 126.82613879590866,
    "latitude": 37.55927211017624
  },
  {
    "": 293,
    "address": "서울특별시 강남구 학동로 313, (논현동)",
    "name": "이형복산부인과의원",
    "call": "02-544-2600",
    "longitude": 127.037275,
    "latitude": 37.516213888888885
  },
  {
    "": 294,
    "address": "서울특별시 성동구 행당로 87 (행당동)",
    "name": "이혜경산부인과의원",
    "call": "02-2282-1588",
    "longitude": 127.02855237021411,
    "latitude": 37.55726084802186
  },
  {
    "": 295,
    "address": "서울특별시 강남구 테헤란로 403, 리치타워 301호 (삼성동)",
    "name": "이혜미산부인과의원",
    "call": "02-508-4693",
    "longitude": 127.04949818034132,
    "latitude": 37.50508640081132
  },
  {
    "": 296,
    "address": "서울특별시 마포구 마포대로 208, 203호 (아현동, 효성인텔리안)",
    "name": "이화더블유산부인과의원",
    "call": "02-363-7588",
    "longitude": 126.9568509551,
    "latitude": 37.5525122183
  },
  {
    "": 297,
    "address": "서울특별시 동작구 사당로 220, 2층 (사당동)",
    "name": "이화산부인과의원",
    "call": "02-521-2411",
    "longitude": 126.97324442779336,
    "latitude": 37.48330559685007
  },
  {
    "": 298,
    "address": "서울특별시 영등포구 당산로 222",
    "name": "이화퀸산부인과의원",
    "call": "02-2675-7775",
    "longitude": 126.90228064276788,
    "latitude": 37.533299113153845
  },
  {
    "": 299,
    "address": "서울특별시 용산구 두텁바위로 11",
    "name": "일심외과산부인과의원",
    "call": "02-776-4937",
    "longitude": 126.97346327516628,
    "latitude": 37.5454668011933
  },
  {
    "": 300,
    "address": "서울특별시 마포구 양화로 157, 201-B호 (동교동, 파라다이스텔)",
    "name": "임선영산부인과의원",
    "call": "02-323-5775",
    "longitude": 126.9229503075,
    "latitude": 37.5566864039
  },
  {
    "": 301,
    "address": "서울특별시 중랑구 면목로 415 (면목동)",
    "name": "정은숙산부인과의원",
    "call": "02-432-8291",
    "longitude": 127.08709656013168,
    "latitude": 37.5890251303095
  },
  {
    "": 302,
    "address": "서울특별시 성동구 성덕정길 79, 1, 3층 (성수동2가)",
    "name": "자애산부인과의원",
    "call": "02-499-9961",
    "longitude": 127.05254098200872,
    "latitude": 37.53804196570619
  },
  {
    "": 303,
    "address": "서울특별시 영등포구 영중로 6, 9층 (영등포동3가, 키스톤타워)",
    "name": "자연산부인과의원",
    "call": "02-2671-9900",
    "longitude": 126.90665281198264,
    "latitude": 37.51696215971975
  },
  {
    "": 304,
    "address": "서울특별시 광진구 광나루로 506 (구의동)",
    "name": "SC제일산부인과의원",
    "call": "02-447-3111",
    "longitude": 127.0856644719,
    "latitude": 37.5447188169
  },
  {
    "": 305,
    "address": "서울특별시 노원구 노해로83길 4 (상계동)",
    "name": "장애숙산부인과의원",
    "call": "02-938-6486",
    "longitude": 127.06452276861263,
    "latitude": 37.65552888506312
  },
  {
    "": 306,
    "address": "서울특별시 구로구 남부순환로97길 3, KS프리미어빌딩 701호 (개봉동)",
    "name": "장윤주산부인과의원",
    "call": "02-2689-1366",
    "longitude": 126.85823616300964,
    "latitude": 37.49398848589902
  },
  {
    "": 307,
    "address": "서울특별시 송파구 올림픽로35길 112, 2동 304호 (신천동, 장미B상가)",
    "name": "장종상산부인과의원",
    "call": "02-2203-5150",
    "longitude": 127.10152012944154,
    "latitude": 37.517686033415714
  },
  {
    "": 308,
    "address": "서울특별시 서초구 남부순환로350길 4, 3층 (양재동)",
    "name": "장은진산부인과의원",
    "call": "02-571-1516",
    "longitude": 127.0351770963,
    "latitude": 37.4843377475
  },
  {
    "": 309,
    "address": "서울특별시 광진구 천호대로 635 (중곡동)",
    "name": "전영미산부인과의원",
    "call": "02-454-2963",
    "longitude": 127.0883097782611,
    "latitude": 37.55403318600302
  },
  {
    "": 310,
    "address": "서울특별시 성북구 장월로 83 (장위동)",
    "name": "전은의산부인과의원",
    "call": "02-941-7310",
    "longitude": 127.0488743968,
    "latitude": 37.6133342467
  },
  {
    "": 311,
    "address": "서울특별시 광진구 아차산로 484 (구의동)",
    "name": "정경원산부인과의원",
    "call": "02-453-7575",
    "longitude": 127.0956625862119,
    "latitude": 37.54074908796245
  },
  {
    "": 312,
    "address": "서울특별시 강남구 개포로 615, 201-3호 (개포동, 석탑프라자)",
    "name": "정산부인과의원",
    "call": "02-3411-3275",
    "longitude": 127.07559420620788,
    "latitude": 37.4927071754428
  },
  {
    "": 313,
    "address": "서울특별시 종로구 사직로 119, 목천빌딩 5층 (내자동)",
    "name": "정안산부인과의원",
    "call": "02-722-7004",
    "longitude": 126.971897907053,
    "latitude": 37.5762814352495
  },
  {
    "": 314,
    "address": "서울특별시 중랑구 동일로 861, 2층 (묵동, 정영희산부인과)",
    "name": "정영희산부인과의원",
    "call": "02-977-3455",
    "longitude": 127.07799885239828,
    "latitude": 37.60732521177756
  },
  {
    "": 315,
    "address": "서울특별시 종로구 종로 347, 202호 (숭인동)",
    "name": "정재원더블유(W)산부인과의원",
    "call": "02-763-5838",
    "longitude": 127.01584375537644,
    "latitude": 37.57408994003902
  },
  {
    "": 316,
    "address": "서울특별시 양천구 신월로 164, 401호 (신월동, 승일뷰티타워2)",
    "name": "정현수산부인과의원",
    "call": "02-2605-2970",
    "longitude": 126.84203070602568,
    "latitude": 37.51777278230223
  },
  {
    "": 317,
    "address": "서울특별시 성동구 독서당로 302, 1층 (금호동4가)",
    "name": "정희수산부인과의원",
    "call": "02-2234-1049",
    "longitude": 127.02254691085442,
    "latitude": 37.54783770660622
  },
  {
    "": 318,
    "address": "서울특별시 성북구 화랑로 87, 4층 (하월곡동, 류성빌딩)",
    "name": "제니산부인과의원",
    "call": "02-941-3892",
    "longitude": 127.0417737656,
    "latitude": 37.6026764656
  },
  {
    "": 319,
    "address": "서울특별시 금천구 시흥대로 399, 시티렉스 408호 (독산동)",
    "name": "제이미즈산부인과의원",
    "call": "02-803-2603",
    "longitude": 126.89700387,
    "latitude": 37.4693593572
  },
  {
    "": 320,
    "address": "서울특별시 강서구 공항대로 36, 2층 (공항동)",
    "name": "제이산부인과의원",
    "call": "02-2665-8500",
    "longitude": 126.81117391939584,
    "latitude": 37.56109649521972
  },
  {
    "": 321,
    "address": "서울특별시 강남구 도산대로 109, 2층 (신사동)",
    "name": "제이엘산부인과의원",
    "call": "02-514-1021",
    "longitude": 127.02041388888888,
    "latitude": 37.51685555555556
  },
  {
    "": 322,
    "address": "서울특별시 강북구 도봉로 329, 7층 (수유동)",
    "name": "제이유산부인과의원",
    "call": "02-900-9077",
    "longitude": 127.0247034478,
    "latitude": 37.6375531022
  },
  {
    "": 323,
    "address": "서울특별시 서초구 동작대로 114, (재)원불교 유문빌딩 2층 (방배동)",
    "name": "제인산부인과의원",
    "call": "02-595-6675",
    "longitude": 126.982679310439,
    "latitude": 37.4867629041126
  },
  {
    "": 324,
    "address": "서울특별시 노원구 섬밭로 229 , 306호 (하계동, 극동,건영,벽산아파트)",
    "name": "제일산부인과의원",
    "call": "02-948-2870",
    "longitude": 127.0645381361,
    "latitude": 37.6366190323
  },
  {
    "": 325,
    "address": "서울특별시 동대문구 천호대로25길 81, 2층 (용두동, 랜드마크타워)",
    "name": "조양산부인과의원",
    "call": "02-924-1008",
    "longitude": 127.03395764996483,
    "latitude": 37.57780797874168
  },
  {
    "": 326,
    "address": "서울특별시 금천구 시흥대로 212, 2층 (시흥동)",
    "name": "조윤희산부인과의원",
    "call": "02-802-8892",
    "longitude": 126.90165133050672,
    "latitude": 37.45277388866643
  },
  {
    "": 327,
    "address": "서울특별시 서초구 강남대로 359, 301호 (서초동, 대우도씨에빛2)",
    "name": "조은연세산부인과의원",
    "call": "02-501-7307",
    "longitude": 127.0286096894,
    "latitude": 37.4947984176
  },
  {
    "": 328,
    "address": "서울특별시 마포구 월드컵북로 396, 지하1층 1014,1015호 (상암동, 누리꿈스퀘어)",
    "name": "조지연산부인과의원",
    "call": "02-2132-8033",
    "longitude": 126.8904186172296,
    "latitude": 37.57940480942696
  },
  {
    "": 329,
    "address": "서울특별시 종로구 종로 68, 대한기독교서회 4층 (종로2가)",
    "name": "종로와이(Y)산부인과의원",
    "call": "02-733-5100",
    "longitude": 126.98494956434963,
    "latitude": 37.56989396463469
  },
  {
    "": 330,
    "address": "서울특별시 광진구 아차산로 215, 2층 (화양동)",
    "name": "주명희산부인과의원",
    "call": "02-467-9337",
    "longitude": 127.0675787944,
    "latitude": 37.5412058426
  },
  {
    "": 331,
    "address": "서울특별시 강서구 곰달래로 263 (화곡동)",
    "name": "중앙산부인과의원",
    "call": "02-2643-6047",
    "longitude": 126.86232397085996,
    "latitude": 37.53243045246002
  },
  {
    "": 332,
    "address": "서울특별시 구로구 디지털로26길 98, 디지털탑프라자 401호 (구로동)",
    "name": "지밸리산부인과의원",
    "call": "02-865-2270",
    "longitude": 126.8973488896,
    "latitude": 37.4815845543
  },
  {
    "": 333,
    "address": "서울특별시 서초구 서초대로 304, 5층 (서초동)",
    "name": "지앤산부인과의원",
    "call": "02-584-2888",
    "longitude": 127.01494016462526,
    "latitude": 37.49379541327724
  },
  {
    "": 334,
    "address": "서울특별시 구로구 시흥대로 559, 부원빌딩 3,4층 (구로동)",
    "name": "지앤산부인과의원",
    "call": "02-852-2828",
    "longitude": 126.90118929986332,
    "latitude": 37.48310183362145
  },
  {
    "": 335,
    "address": "서울특별시 영등포구 영중로2길 1, 5층 (영등포동3가, 대선빌딩)",
    "name": "지앤유산부인과의원",
    "call": "02-2068-5288",
    "longitude": 126.9069128795646,
    "latitude": 37.51691201951941
  },
  {
    "": 336,
    "address": "서울특별시 성북구 동소문로 106, 유타몰 6층 (동선동1가)",
    "name": "지인산부인과의원",
    "call": "02-923-8888",
    "longitude": 127.0170886046,
    "latitude": 37.5925735004
  },
  {
    "": 337,
    "address": "서울특별시 강남구 봉은사로 116, 2층 (역삼동, 은성빌딩)",
    "name": "최상산부인과의원",
    "call": "02-565-0505",
    "longitude": 127.0263877417214,
    "latitude": 37.50474964650685
  },
  {
    "": 338,
    "address": "서울특별시 마포구 신촌로 12, 동우빌딩 3,4층 (동교동)",
    "name": "진오비산부인과의원",
    "call": "02-3143-3595",
    "longitude": 126.92769325816064,
    "latitude": 37.558087751303
  },
  {
    "": 339,
    "address": "서울특별시 강동구 천호대로 1006, 101동 604,605호 (성내동, 브라운스톤)",
    "name": "진산부인과의원",
    "call": "02-484-4488",
    "longitude": 127.1237873849534,
    "latitude": 37.53805004812564
  },
  {
    "": 340,
    "address": "서울특별시 용산구 서빙고로 17, 2층 29~31호 (한강로3가)",
    "name": "채움산부인과의원",
    "call": "02-6218-0501",
    "longitude": 126.966566172294,
    "latitude": 37.5269056148241
  },
  {
    "": 341,
    "address": "서울특별시 강남구 삼성로 712 (청담동)",
    "name": "청담마리산부인과의원",
    "call": "02-2156-9200",
    "longitude": 127.05015713,
    "latitude": 37.5197202387
  },
  {
    "": 342,
    "address": "서울특별시 강남구 학동로 215, 3,6(일부),7층 601호 (논현동)",
    "name": "청담산부인과의원",
    "call": "02-544-7888",
    "longitude": 127.03256824271,
    "latitude": 37.5148747650558
  },
  {
    "": 343,
    "address": "서울특별시 강남구 학동로53길 3-2, 6층 (논현동)",
    "name": "청담헤라산부인과의원",
    "call": "0507-1376-7806",
    "longitude": 127.040134161132,
    "latitude": 37.5173459617876
  },
  {
    "": 344,
    "address": "서울특별시 강서구 마곡중앙로 59-21, 에이스타워2 4층 404,405,406호 (마곡동)",
    "name": "최경희산부인과의원",
    "call": "02-2664-3396",
    "longitude": 126.824241089722,
    "latitude": 37.5588046568145
  },
  {
    "": 345,
    "address": "서울특별시 마포구 와우산로 172, 1층 (동교동)",
    "name": "최근해산부인과의원",
    "call": "02-337-3380",
    "longitude": 126.9312625589,
    "latitude": 37.5559635297
  },
  {
    "": 346,
    "address": "서울특별시 강동구 천호대로 1006",
    "name": "킴스산부인과의원",
    "call": "02-486-2160",
    "longitude": 127.12379171977028,
    "latitude": 37.53797708928976
  },
  {
    "": 347,
    "address": "서울특별시 서초구 서초대로 351, B1,4~8층 (서초동)",
    "name": "최상산부인과의원",
    "call": "02-565-0505",
    "longitude": 127.019673324402,
    "latitude": 37.4957952255278
  },
  {
    "": 348,
    "address": "서울특별시 은평구 통일로 731 (대조동)",
    "name": "최윤영산부인과의원",
    "call": "02-382-0220",
    "longitude": 126.92927794483847,
    "latitude": 37.61055173211253
  },
  {
    "": 349,
    "address": "서울특별시 동대문구 사가정로 122, 308, 309호 (전농동, 전농동하우스토리)",
    "name": "최은림산부인과의원",
    "call": "02-2217-5614",
    "longitude": 127.0585185926,
    "latitude": 37.577210914000005
  },
  {
    "": 350,
    "address": "서울특별시 동대문구 전농로 62, 2층 (답십리동)",
    "name": "최정애산부인과의원",
    "call": "02-2214-3727",
    "longitude": 127.05743111678244,
    "latitude": 37.57038190412451
  },
  {
    "": 351,
    "address": "서울특별시 강동구 상일로12길 97 (상일제2동)",
    "name": "강동드림산부인과의원",
    "call": "02-441-4567",
    "longitude": 127.17265142037492,
    "latitude": 37.55686281966145
  },
  {
    "": 352,
    "address": "서울특별시 광진구 자양로9길 13, (자양동)",
    "name": "퀸산부인과의원",
    "call": "02-457-3575",
    "longitude": 127.08447518054422,
    "latitude": 37.53365899376547
  },
  {
    "": 353,
    "address": "서울특별시 구로구 경인로 662, 10층 1001호 (신도림동, 디큐브시티)",
    "name": "큐브산부인과의원",
    "call": "02-2211-0600",
    "longitude": 126.8882146491,
    "latitude": 37.5081235198
  },
  {
    "": 354,
    "address": "서울특별시 노원구 동일로 1689, 207호(상계동,하이베라스)",
    "name": "큐빅산부인과의원",
    "call": "02-930-1450",
    "longitude": 127.0549528594317,
    "latitude": 37.67912139854208
  },
  {
    "": 355,
    "address": "서울특별시 금천구 범안로 1183, 남서울크리닉센터 (독산동)",
    "name": "큰사랑산부인과의원",
    "call": "02-893-2322",
    "longitude": 126.89311445243771,
    "latitude": 37.46669251573641
  },
  {
    "": 356,
    "address": "서울특별시 서초구 강남대로 589, 14층 (잠원동)",
    "name": "클로버산부인과의원",
    "call": "02-6402-3434",
    "longitude": 127.019386390307,
    "latitude": 37.5144406772564
  },
  {
    "": 357,
    "address": "서울특별시 서초구 서초중앙로 239, 5층 (반포동)",
    "name": "통일산부인과의원",
    "call": "02-532-9410",
    "longitude": 127.01100786616726,
    "latitude": 37.50299487617062
  },
  {
    "": 358,
    "address": "서울특별시 서초구 강남대로 559, CK빌딩(씨케이빌딩) 9,10층 (잠원동)",
    "name": "하이미즈산부인과의원",
    "call": "02-545-8037",
    "longitude": 127.020539169585,
    "latitude": 37.5117737805731
  },
  {
    "": 359,
    "address": "서울특별시 금천구 독산로14길 3, (시흥동)",
    "name": "고상덕산부인과의원",
    "call": "02-802-6555",
    "longitude": 126.90696366055172,
    "latitude": 37.45239976451037
  },
  {
    "": 360,
    "address": "서울특별시 중구 다산로 185, 3층 (신당동)",
    "name": "권소연산부인과의원",
    "call": "02-2235-7337",
    "longitude": 127.01344584434126,
    "latitude": 37.56017421158525
  },
  {
    "": 361,
    "address": "서울특별시 마포구 숭문길 218, 2,3층 (염리동)",
    "name": "김미영산부인과의원",
    "call": "02-704-6620",
    "longitude": 126.9466405322,
    "latitude": 37.5561408684
  },
  {
    "": 362,
    "address": "서울특별시 서초구 신반포로 157",
    "name": "김혜경산부인과의원",
    "call": "02-591-9091",
    "longitude": 127.00148541518205,
    "latitude": 37.50549642845651
  },
  {
    "": 363,
    "address": "서울특별시 서초구 강남대로 515 (반포동)",
    "name": "나나산부인과의원",
    "call": "02-515-6104",
    "longitude": 127.0223262801,
    "latitude": 37.5080229346
  },
  {
    "": 364,
    "address": "서울특별시 마포구 마포대로 68, 304호 (도화동, 마포아크로타워)",
    "name": "뉴욕산부인과의원",
    "call": "02-716-7122",
    "longitude": 126.9491280653765,
    "latitude": 37.54141289489751
  },
  {
    "": 365,
    "address": "서울특별시 도봉구 마들로 684, 4층 402호 (도봉동)",
    "name": "다우미즈산부인과의원",
    "call": "02-983-6000",
    "longitude": 127.0466815185,
    "latitude": 37.6710449805
  },
  {
    "": 366,
    "address": "서울특별시 강남구 강남대로 556, 논현빌딩 4층 (논현동)",
    "name": "더케이산부인과의원",
    "call": "02-542-1119",
    "longitude": 127.02155470114,
    "latitude": 37.5115664587287
  },
  {
    "": 367,
    "address": "서울특별시 용산구 보광로 123, 5층 (이태원동)",
    "name": "라라산부인과의원",
    "call": "02-707-2005",
    "longitude": 126.9940126042,
    "latitude": 37.5337142884
  },
  {
    "": 368,
    "address": "서울특별시 마포구 양화로 152, 7층 (동교동)",
    "name": "리즈산부인과의원",
    "call": "02-322-5252",
    "longitude": 126.922892344,
    "latitude": 37.55582501260001
  },
  {
    "": 369,
    "address": "서울특별시 종로구 종로 78 (종로2가)",
    "name": "리즈산부인과의원",
    "call": "02-732-3100",
    "longitude": 126.986040768872,
    "latitude": 37.56987968277655
  },
  {
    "": 370,
    "address": "서울특별시 관악구 남부순환로 1831 (봉천동)",
    "name": "모태산부인과의원",
    "call": "02-888-0204",
    "longitude": 126.95367201381924,
    "latitude": 37.48119478701909
  },
  {
    "": 371,
    "address": "서울특별시 강북구 도봉로 328, 309호 (번동, 가든타워)",
    "name": "문산부인과의원",
    "call": "02-904-0726",
    "longitude": 127.02518888888888,
    "latitude": 37.63714722222223
  },
  {
    "": 372,
    "address": "서울특별시 송파구 마천로 262 (거여동)",
    "name": "박산부인과의원",
    "call": "02-408-0022",
    "longitude": 127.14578243033635,
    "latitude": 37.498126739919385
  },
  {
    "": 373,
    "address": "서울특별시 금천구 독산로 125-1, 4층 (시흥동, 성메디칼병원빌딩)",
    "name": "성메디칼산부인과의원",
    "call": "02-808-0567",
    "longitude": 126.90489889752823,
    "latitude": 37.4585898796811
  },
  {
    "": 374,
    "address": "서울특별시 강남구 선릉로 815, 신한양빌딩 2층 (신사동)",
    "name": "압구정연세산부인과의원",
    "call": "02-548-9008",
    "longitude": 127.0393275209,
    "latitude": 37.5248672643
  },
  {
    "": 375,
    "address": "서울특별시 마포구 양화로 48, 강서정형외과 1층 (합정동)",
    "name": "연세더블유산부인과의원",
    "call": "02-334-2330",
    "longitude": 126.9143618235,
    "latitude": 37.549429257
  },
  {
    "": 376,
    "address": "서울특별시 서초구 잠원로 24, 501호 (반포동, 자이프라자상가)",
    "name": "연이산부인과의원",
    "call": "02-596-0202",
    "longitude": 127.009871399,
    "latitude": 37.507116419
  },
  {
    "": 377,
    "address": "서울특별시 구로구 경인로67길 23, 208호 (신도림동, 신도림2차푸르지오)",
    "name": "예산부인과의원",
    "call": "02-2633-8782",
    "longitude": 126.88945305454764,
    "latitude": 37.51053931566591
  },
  {
    "": 378,
    "address": "서울특별시 노원구 한글비석로 384 (중계동)",
    "name": "오승희산부인과의원",
    "call": "02-938-3313",
    "longitude": 127.07320104653505,
    "latitude": 37.65987124432756
  },
  {
    "": 379,
    "address": "서울특별시 강남구 논현로 340, 3층 (역삼동)",
    "name": "은혜산부인과의원",
    "call": "02-3453-3205",
    "longitude": 127.0396334113,
    "latitude": 37.4957647169
  },
  {
    "": 380,
    "address": "서울특별시 은평구 진흥로 133, D동 B2,B1,2~4층 (대조동)",
    "name": "은혜산부인과의원",
    "call": "02-353-4307",
    "longitude": 126.9248859449,
    "latitude": 37.6081812211
  },
  {
    "": 381,
    "address": "서울특별시 중랑구 망우로 411, B동 1, 7층 (망우동, 장스빌딩)",
    "name": "장스산부인과의원",
    "call": "02-490-4114",
    "longitude": 127.09772635191852,
    "latitude": 37.59965211013455
  },
  {
    "": 382,
    "address": "서울특별시 강동구 올림픽로 783 (암사동)",
    "name": "임경희산부인과의원",
    "call": "02-441-1566",
    "longitude": 127.12761143937078,
    "latitude": 37.55114289516143
  },
  {
    "": 383,
    "address": "서울특별시 마포구 잔다리로 81, 3~4층 (서교동)",
    "name": "제이스엠비산부인과의원",
    "call": "02-324-9966",
    "longitude": 126.9157457791,
    "latitude": 37.554493861
  },
  {
    "": 384,
    "address": "서울특별시 은평구 은평로 136, 303호 (응암동, 은경빌딩)",
    "name": "중앙산부인과의원",
    "call": "02-353-9451",
    "longitude": 126.92304128136888,
    "latitude": 37.60026213273844
  },
  {
    "": 385,
    "address": "서울특별시 강북구 삼양로 161 (미아동, 행전빌딩)",
    "name": "장혜정산부인과의원",
    "call": "02-945-6976",
    "longitude": 127.02109744784404,
    "latitude": 37.61838981671319
  },
  {
    "": 386,
    "address": "서울특별시 강남구 도산대로 111 (신사동, S-TOWER)",
    "name": "클로버산부인과의원",
    "call": "02-6402-3434",
    "longitude": 127.0206910345,
    "latitude": 37.516961194
  },
  {
    "": 387,
    "address": "서울특별시 서대문구 거북골로 120",
    "name": "최아란산부인과의원",
    "call": "02-308-1781",
    "longitude": 126.91554641386044,
    "latitude": 37.57546144158157
  },
  {
    "": 388,
    "address": "서울특별시 노원구 동일로 1059, (공릉동)",
    "name": "퀸스메디산부인과의원",
    "call": "02-948-7588",
    "longitude": 127.0729872833,
    "latitude": 37.6245300843
  },
  {
    "": 389,
    "address": "서울특별시 마포구 월드컵로 88, 서교월드빌딩 2층 (서교동)",
    "name": "포근담산부인과의원",
    "call": "02-324-9966",
    "longitude": 126.909934007021,
    "latitude": 37.5567035014566
  },
  {
    "": 390,
    "address": "서울특별시 강동구 양재대로 1325 (성내동)",
    "name": "푸른산부인과의원",
    "call": "02-485-0078",
    "longitude": 127.1345849859,
    "latitude": 37.5248187542
  },
  {
    "": 391,
    "address": "서울특별시 송파구 양재대로60길 3-13, 가락동 문산부인과 (가락동)",
    "name": "포유문산부인과의원",
    "call": "02-443-1600",
    "longitude": 127.11715540396976,
    "latitude": 37.49892741699868
  },
  {
    "": 392,
    "address": "서울특별시 강남구 봉은사로 107, 6층 (논현동)",
    "name": "프린세스산부인과의원",
    "call": "02-541-6864",
    "longitude": 127.0253925817,
    "latitude": 37.5050201662
  },
  {
    "": 393,
    "address": "서울특별시 송파구 마천로 53, 3층 (오금동)",
    "name": "하나산부인과의원",
    "call": "02-408-3814",
    "longitude": 127.12665444700588,
    "latitude": 37.50854459247224
  },
  {
    "": 394,
    "address": "서울특별시 마포구 대흥로 83, 1층 (대흥동, 신동빌딩)",
    "name": "하나산부인과의원",
    "call": "02-3274-1373",
    "longitude": 126.9413732815,
    "latitude": 37.5476185327
  },
  {
    "": 395,
    "address": "서울특별시 서초구 서초대로77길 3, 아라타워 2층 (서초동)",
    "name": "하이연세산부인과의원",
    "call": "02-545-3500",
    "longitude": 127.02558261812942,
    "latitude": 37.50511743379629
  },
  {
    "": 396,
    "address": "서울특별시 강동구 구천면로 287-1, 1층,2층3층 (천호동)",
    "name": "한나산부인과의원",
    "call": "02-428-7880",
    "longitude": 127.13335531730988,
    "latitude": 37.54578731726038
  },
  {
    "": 397,
    "address": "서울특별시 종로구 자하문로2길 4, 201호 (적선동, 경복빌딩)",
    "name": "한빛산부인과의원",
    "call": "02-734-7582",
    "longitude": 126.97279912680303,
    "latitude": 37.57635011810339
  },
  {
    "": 398,
    "address": "서울특별시 종로구 새문안로3길 15, 동원빌딩 2층 (당주동)",
    "name": "한송이산부인과의원",
    "call": "02-6258-0404",
    "longitude": 126.972300686793,
    "latitude": 37.5717056482532
  },
  {
    "": 399,
    "address": "서울특별시 강서구 강서로 242, 2층 205호 (화곡동, 강서힐스테이트)",
    "name": "한순심산부인과의원",
    "call": "02-2603-1100",
    "longitude": 126.83676281196502,
    "latitude": 37.54738330398159
  },
  {
    "": 400,
    "address": "서울특별시 도봉구 도봉로 480, 3층 (창동)",
    "name": "한종수산부인과의원",
    "call": "02-905-5252",
    "longitude": 127.03488717137992,
    "latitude": 37.64835513305541
  },
  {
    "": 401,
    "address": "서울특별시 마포구 월드컵로 29, 3층 (합정동, JH빌딩)",
    "name": "합정도로시산부인과의원",
    "call": "02-333-1945",
    "longitude": 126.9121317157,
    "latitude": 37.5520152851
  },
  {
    "": 402,
    "address": "서울특별시 송파구 석촌호수로 160 (삼전동, 4층)",
    "name": "헤렌여성산부인과의원",
    "call": "02-414-0016",
    "longitude": 127.09480355222112,
    "latitude": 37.50666702263055
  },
  {
    "": 403,
    "address": "서울특별시 중구 장충단로 253, 10층(을지로6가, 헬로에이피엠)",
    "name": "헬로에이피엠정연실산부인과의원",
    "call": "02-6388-3883",
    "longitude": 127.00814528305769,
    "latitude": 37.56745834667544
  },
  {
    "": 404,
    "address": "서울특별시 서초구 방배로 127, 3,4,5층 (방배동)",
    "name": "현산부인과의원",
    "call": "02-584-3800",
    "longitude": 126.9948622175,
    "latitude": 37.48525829700001
  },
  {
    "": 405,
    "address": "서울특별시 성북구 종암로 115, 3층 (종암동)",
    "name": "현대여성산부인과의원",
    "call": "02-946-1523",
    "longitude": 127.03361912771364,
    "latitude": 37.600390551558576
  },
  {
    "": 406,
    "address": "서울특별시 서대문구 연희로 98 (연희동)",
    "name": "홍영택산부인과의원",
    "call": "02-333-2129",
    "longitude": 126.93100827412736,
    "latitude": 37.56664559259626
  },
  {
    "": 407,
    "address": "서울특별시 동작구 현충로 75, 원불교100년기념관 및 역사문화기념관 4층 1호 (흑석동)",
    "name": "혜윤산부인과의원",
    "call": "02-815-2778",
    "longitude": 126.963859317475,
    "latitude": 37.5097590855867
  },
  {
    "": 408,
    "address": "서울특별시 도봉구 도봉로 677, 202호 (방학동, 우리들메디빌딩)",
    "name": "혜정산부인과의원",
    "call": "02-999-4497",
    "longitude": 127.04235972750266,
    "latitude": 37.66494221756111
  },
  {
    "": 409,
    "address": "서울특별시 성동구 고산자로 322, 1층 (마장동)",
    "name": "호아맘산부인과의원",
    "call": "02-2291-2266",
    "longitude": 127.03740337185285,
    "latitude": 37.56814466739583
  },
  {
    "": 410,
    "address": "서울특별시 서초구 서초중앙로 110, 2층 (서초동, 서초동롯데캐슬메디치)",
    "name": "호움산부인과의원",
    "call": "025489400",
    "longitude": 127.0145236022,
    "latitude": 37.4915897995
  },
  {
    "": 411,
    "address": "서울특별시 노원구 화랑로 455, 1층 (공릉동)",
    "name": "홍성환산부인과의원",
    "call": "02-972-1800",
    "longitude": 127.07773887591456,
    "latitude": 37.61868865183289
  },
  {
    "": 412,
    "address": "서울특별시 관악구 신림로 344, 305호 (신림동)",
    "name": "홍이경산부인과의원",
    "call": "02-883-3217",
    "longitude": 126.92996612893398,
    "latitude": 37.48520520840519
  },
  {
    "": 413,
    "address": "서울특별시 마포구 독막로 64, 1층,2(일부)층 (상수동)",
    "name": "홍익산부인과의원",
    "call": "02-3142-9900",
    "longitude": 126.9204293602,
    "latitude": 37.5476098808
  },
  {
    "": 414,
    "address": "서울특별시 강남구 논현로 428, 정진빌딩 202호 (역삼동)",
    "name": "황경희산부인과의원",
    "call": "02-508-5856",
    "longitude": 127.03847826758144,
    "latitude": 37.498520521812594
  }
]